{
"type": "FeatureCollection",
"name": "Georgia_centroids",
"crs": { "type": "name", "properties": { "name": "urn:ogc:def:crs:EPSG::4269" } },
"features": [
{ "type": "Feature", "properties": { "NAME": "HABERSHAM", "name": "Habersham", "lng": -83.531117367598057, "lat": 34.631018771530542 }, "geometry": { "type": "Point", "coordinates": [ -83.531117367598057, 34.631018771530542 ] } },
{ "type": "Feature", "properties": { "NAME": "HALL", "name": "Hall", "lng": -83.81957197357336, "lat": 34.317088376057235 }, "geometry": { "type": "Point", "coordinates": [ -83.81957197357336, 34.317088376057235 ] } },
{ "type": "Feature", "properties": { "NAME": "APPLING", "name": "Appling", "lng": -82.28889595631648, "lat": 31.749225900058381 }, "geometry": { "type": "Point", "coordinates": [ -82.28889595631648, 31.749225900058381 ] } },
{ "type": "Feature", "properties": { "NAME": "HANCOCK", "name": "Hancock", "lng": -83.000685700314875, "lat": 33.270447882753182 }, "geometry": { "type": "Point", "coordinates": [ -83.000685700314875, 33.270447882753182 ] } },
{ "type": "Feature", "properties": { "NAME": "TALIAFERRO", "name": "Taliaferro", "lng": -82.878767289320905, "lat": 33.566128725140963 }, "geometry": { "type": "Point", "coordinates": [ -82.878767289320905, 33.566128725140963 ] } },
{ "type": "Feature", "properties": { "NAME": "MCDUFFIE", "name": "McDuffie", "lng": -82.481397180297947, "lat": 33.482834128531913 }, "geometry": { "type": "Point", "coordinates": [ -82.481397180297947, 33.482834128531913 ] } },
{ "type": "Feature", "properties": { "NAME": "BAKER", "name": "Baker", "lng": -84.444715109519208, "lat": 31.326144734495756 }, "geometry": { "type": "Point", "coordinates": [ -84.444715109519208, 31.326144734495756 ] } },
{ "type": "Feature", "properties": { "NAME": "RABUN", "name": "Rabun", "lng": -83.40203301572005, "lat": 34.881796015059614 }, "geometry": { "type": "Point", "coordinates": [ -83.40203301572005, 34.881796015059614 ] } },
{ "type": "Feature", "properties": { "NAME": "FAYETTE", "name": "Fayette", "lng": -84.494318204971336, "lat": 33.413990941457499 }, "geometry": { "type": "Point", "coordinates": [ -84.494318204971336, 33.413990941457499 ] } },
{ "type": "Feature", "properties": { "NAME": "BRYAN", "name": "Bryan", "lng": -81.443636698903219, "lat": 32.014477815299074 }, "geometry": { "type": "Point", "coordinates": [ -81.443636698903219, 32.014477815299074 ] } },
{ "type": "Feature", "properties": { "NAME": "TWIGGS", "name": "Twiggs", "lng": -83.427076794324634, "lat": 32.667199196820278 }, "geometry": { "type": "Point", "coordinates": [ -83.427076794324634, 32.667199196820278 ] } },
{ "type": "Feature", "properties": { "NAME": "MUSCOGEE", "name": "Muscogee", "lng": -84.877052331225599, "lat": 32.510017923032386 }, "geometry": { "type": "Point", "coordinates": [ -84.877052331225599, 32.510017923032386 ] } },
{ "type": "Feature", "properties": { "NAME": "TATTNALL", "name": "Tattnall", "lng": -82.058127625476601, "lat": 32.04579738882849 }, "geometry": { "type": "Point", "coordinates": [ -82.058127625476601, 32.04579738882849 ] } },
{ "type": "Feature", "properties": { "NAME": "PUTNAM", "name": "Putnam", "lng": -83.372797202980379, "lat": 33.321773758782072 }, "geometry": { "type": "Point", "coordinates": [ -83.372797202980379, 33.321773758782072 ] } },
{ "type": "Feature", "properties": { "NAME": "LIBERTY", "name": "Liberty", "lng": -81.494894170506868, "lat": 31.828227174345042 }, "geometry": { "type": "Point", "coordinates": [ -81.494894170506868, 31.828227174345042 ] } },
{ "type": "Feature", "properties": { "NAME": "MURRAY", "name": "Murray", "lng": -84.748073063537433, "lat": 34.788433823743695 }, "geometry": { "type": "Point", "coordinates": [ -84.748073063537433, 34.788433823743695 ] } },
{ "type": "Feature", "properties": { "NAME": "COBB", "name": "Cobb", "lng": -84.576686753609877, "lat": 33.941582987020425 }, "geometry": { "type": "Point", "coordinates": [ -84.576686753609877, 33.941582987020425 ] } },
{ "type": "Feature", "properties": { "NAME": "JEFFERSON", "name": "Jefferson", "lng": -82.418174512582624, "lat": 33.054866046101097 }, "geometry": { "type": "Point", "coordinates": [ -82.418174512582624, 33.054866046101097 ] } },
{ "type": "Feature", "properties": { "NAME": "OGLETHORPE", "name": "Oglethorpe", "lng": -83.08071252294431, "lat": 33.88066776511225 }, "geometry": { "type": "Point", "coordinates": [ -83.08071252294431, 33.88066776511225 ] } },
{ "type": "Feature", "properties": { "NAME": "BRANTLEY", "name": "Brantley", "lng": -81.981897704818806, "lat": 31.196878120421896 }, "geometry": { "type": "Point", "coordinates": [ -81.981897704818806, 31.196878120421896 ] } },
{ "type": "Feature", "properties": { "NAME": "WARREN", "name": "Warren", "lng": -82.6767514163312, "lat": 33.408946806828119 }, "geometry": { "type": "Point", "coordinates": [ -82.6767514163312, 33.408946806828119 ] } },
{ "type": "Feature", "properties": { "NAME": "MONTGOMERY", "name": "Montgomery", "lng": -82.534778446797631, "lat": 32.173401581496876 }, "geometry": { "type": "Point", "coordinates": [ -82.534778446797631, 32.173401581496876 ] } },
{ "type": "Feature", "properties": { "NAME": "BURKE", "name": "Burke", "lng": -82.000705885526514, "lat": 33.061106128266864 }, "geometry": { "type": "Point", "coordinates": [ -82.000705885526514, 33.061106128266864 ] } },
{ "type": "Feature", "properties": { "NAME": "GILMER", "name": "Gilmer", "lng": -84.455618683015601, "lat": 34.691169344342164 }, "geometry": { "type": "Point", "coordinates": [ -84.455618683015601, 34.691169344342164 ] } },
{ "type": "Feature", "properties": { "NAME": "HENRY", "name": "Henry", "lng": -84.154212009907695, "lat": 33.453002358435477 }, "geometry": { "type": "Point", "coordinates": [ -84.154212009907695, 33.453002358435477 ] } },
{ "type": "Feature", "properties": { "NAME": "MITCHELL", "name": "Mitchell", "lng": -84.194279578860687, "lat": 31.225330583516364 }, "geometry": { "type": "Point", "coordinates": [ -84.194279578860687, 31.225330583516364 ] } },
{ "type": "Feature", "properties": { "NAME": "LOWNDES", "name": "Lowndes", "lng": -83.267728409528033, "lat": 30.833844768694714 }, "geometry": { "type": "Point", "coordinates": [ -83.267728409528033, 30.833844768694714 ] } },
{ "type": "Feature", "properties": { "NAME": "PIERCE", "name": "Pierce", "lng": -82.212765133150725, "lat": 31.358767100556079 }, "geometry": { "type": "Point", "coordinates": [ -82.212765133150725, 31.358767100556079 ] } },
{ "type": "Feature", "properties": { "NAME": "WASHINGTON", "name": "Washington", "lng": -82.795930567293297, "lat": 32.969538695913748 }, "geometry": { "type": "Point", "coordinates": [ -82.795930567293297, 32.969538695913748 ] } },
{ "type": "Feature", "properties": { "NAME": "CHATHAM", "name": "Chatham", "lng": -81.132915926430996, "lat": 32.004308961882359 }, "geometry": { "type": "Point", "coordinates": [ -81.132915926430996, 32.004308961882359 ] } },
{ "type": "Feature", "properties": { "NAME": "WHITFIELD", "name": "Whitfield", "lng": -84.96720663640005, "lat": 34.805610177522979 }, "geometry": { "type": "Point", "coordinates": [ -84.96720663640005, 34.805610177522979 ] } },
{ "type": "Feature", "properties": { "NAME": "FULTON", "name": "Fulton", "lng": -84.467073209340114, "lat": 33.790312556904148 }, "geometry": { "type": "Point", "coordinates": [ -84.467073209340114, 33.790312556904148 ] } },
{ "type": "Feature", "properties": { "NAME": "COLUMBIA", "name": "Columbia", "lng": -82.264078520775783, "lat": 33.544122990472843 }, "geometry": { "type": "Point", "coordinates": [ -82.264078520775783, 33.544122990472843 ] } },
{ "type": "Feature", "properties": { "NAME": "BIBB", "name": "Bibb", "lng": -83.697408118894458, "lat": 32.806499807287963 }, "geometry": { "type": "Point", "coordinates": [ -83.697408118894458, 32.806499807287963 ] } },
{ "type": "Feature", "properties": { "NAME": "OCONEE", "name": "Oconee", "lng": -83.437101231625988, "lat": 33.834961558642476 }, "geometry": { "type": "Point", "coordinates": [ -83.437101231625988, 33.834961558642476 ] } },
{ "type": "Feature", "properties": { "NAME": "SCREVEN", "name": "Screven", "lng": -81.611963293753291, "lat": 32.750561812338439 }, "geometry": { "type": "Point", "coordinates": [ -81.611963293753291, 32.750561812338439 ] } },
{ "type": "Feature", "properties": { "NAME": "UNION", "name": "Union", "lng": -83.990479461048423, "lat": 34.833626511429252 }, "geometry": { "type": "Point", "coordinates": [ -83.990479461048423, 34.833626511429252 ] } },
{ "type": "Feature", "properties": { "NAME": "WHEELER", "name": "Wheeler", "lng": -82.724576559713924, "lat": 32.11702182519754 }, "geometry": { "type": "Point", "coordinates": [ -82.724576559713924, 32.11702182519754 ] } },
{ "type": "Feature", "properties": { "NAME": "NEWTON", "name": "Newton", "lng": -83.850192229576876, "lat": 33.55503366527639 }, "geometry": { "type": "Point", "coordinates": [ -83.850192229576876, 33.55503366527639 ] } },
{ "type": "Feature", "properties": { "NAME": "SUMTER", "name": "Sumter", "lng": -84.19700444098946, "lat": 32.039932064390328 }, "geometry": { "type": "Point", "coordinates": [ -84.19700444098946, 32.039932064390328 ] } },
{ "type": "Feature", "properties": { "NAME": "TOOMBS", "name": "Toombs", "lng": -82.331215438213064, "lat": 32.121612201034417 }, "geometry": { "type": "Point", "coordinates": [ -82.331215438213064, 32.121612201034417 ] } },
{ "type": "Feature", "properties": { "NAME": "BULLOCH", "name": "Bulloch", "lng": -81.743174188172461, "lat": 32.396804116212955 }, "geometry": { "type": "Point", "coordinates": [ -81.743174188172461, 32.396804116212955 ] } },
{ "type": "Feature", "properties": { "NAME": "WHITE", "name": "White", "lng": -83.74711686160542, "lat": 34.64640694456314 }, "geometry": { "type": "Point", "coordinates": [ -83.74711686160542, 34.64640694456314 ] } },
{ "type": "Feature", "properties": { "NAME": "LINCOLN", "name": "Lincoln", "lng": -82.451201383583154, "lat": 33.793648350644546 }, "geometry": { "type": "Point", "coordinates": [ -82.451201383583154, 33.793648350644546 ] } },
{ "type": "Feature", "properties": { "NAME": "CAMDEN", "name": "Camden", "lng": -81.669936292584453, "lat": 30.930615694345605 }, "geometry": { "type": "Point", "coordinates": [ -81.669936292584453, 30.930615694345605 ] } },
{ "type": "Feature", "properties": { "NAME": "BALDWIN", "name": "Baldwin", "lng": -83.249575428809919, "lat": 33.069257985591207 }, "geometry": { "type": "Point", "coordinates": [ -83.249575428809919, 33.069257985591207 ] } },
{ "type": "Feature", "properties": { "NAME": "CHARLTON", "name": "Charlton", "lng": -82.137951633836721, "lat": 30.78173612039599 }, "geometry": { "type": "Point", "coordinates": [ -82.137951633836721, 30.78173612039599 ] } },
{ "type": "Feature", "properties": { "NAME": "HOUSTON", "name": "Houston", "lng": -83.666222051267852, "lat": 32.459011155888646 }, "geometry": { "type": "Point", "coordinates": [ -83.666222051267852, 32.459011155888646 ] } },
{ "type": "Feature", "properties": { "NAME": "ELBERT", "name": "Elbert", "lng": -82.84010382266014, "lat": 34.116802151514911 }, "geometry": { "type": "Point", "coordinates": [ -82.84010382266014, 34.116802151514911 ] } },
{ "type": "Feature", "properties": { "NAME": "BARROW", "name": "Barrow", "lng": -83.712733926573094, "lat": 33.993184453534965 }, "geometry": { "type": "Point", "coordinates": [ -83.712733926573094, 33.993184453534965 ] } },
{ "type": "Feature", "properties": { "NAME": "RICHMOND", "name": "Richmond", "lng": -82.073559035717864, "lat": 33.359607170034607 }, "geometry": { "type": "Point", "coordinates": [ -82.073559035717864, 33.359607170034607 ] } },
{ "type": "Feature", "properties": { "NAME": "BLECKLEY", "name": "Bleckley", "lng": -83.327805026174289, "lat": 32.434460141135318 }, "geometry": { "type": "Point", "coordinates": [ -83.327805026174289, 32.434460141135318 ] } },
{ "type": "Feature", "properties": { "NAME": "TALBOT", "name": "Talbot", "lng": -84.533008646161548, "lat": 32.699499794224792 }, "geometry": { "type": "Point", "coordinates": [ -84.533008646161548, 32.699499794224792 ] } },
{ "type": "Feature", "properties": { "NAME": "BERRIEN", "name": "Berrien", "lng": -83.229636606920025, "lat": 31.275985167797039 }, "geometry": { "type": "Point", "coordinates": [ -83.229636606920025, 31.275985167797039 ] } },
{ "type": "Feature", "properties": { "NAME": "EMANUEL", "name": "Emanuel", "lng": -82.301713587834541, "lat": 32.589743121670125 }, "geometry": { "type": "Point", "coordinates": [ -82.301713587834541, 32.589743121670125 ] } },
{ "type": "Feature", "properties": { "NAME": "TELFAIR", "name": "Telfair", "lng": -82.939012290744287, "lat": 31.929804015789973 }, "geometry": { "type": "Point", "coordinates": [ -82.939012290744287, 31.929804015789973 ] } },
{ "type": "Feature", "properties": { "NAME": "BROOKS", "name": "Brooks", "lng": -83.580190368386596, "lat": 30.841980903578115 }, "geometry": { "type": "Point", "coordinates": [ -83.580190368386596, 30.841980903578115 ] } },
{ "type": "Feature", "properties": { "NAME": "GREENE", "name": "Greene", "lng": -83.166676168860647, "lat": 33.578832179845627 }, "geometry": { "type": "Point", "coordinates": [ -83.166676168860647, 33.578832179845627 ] } },
{ "type": "Feature", "properties": { "NAME": "GLYNN", "name": "Glynn", "lng": -81.540734003815786, "lat": 31.230946075230118 }, "geometry": { "type": "Point", "coordinates": [ -81.540734003815786, 31.230946075230118 ] } },
{ "type": "Feature", "properties": { "NAME": "CARROLL", "name": "Carroll", "lng": -85.079807145671907, "lat": 33.582792500527461 }, "geometry": { "type": "Point", "coordinates": [ -85.079807145671907, 33.582792500527461 ] } },
{ "type": "Feature", "properties": { "NAME": "CLAYTON", "name": "Clayton", "lng": -84.357568161989093, "lat": 33.541928212894526 }, "geometry": { "type": "Point", "coordinates": [ -84.357568161989093, 33.541928212894526 ] } },
{ "type": "Feature", "properties": { "NAME": "LANIER", "name": "Lanier", "lng": -83.062755442636217, "lat": 31.037873318844674 }, "geometry": { "type": "Point", "coordinates": [ -83.062755442636217, 31.037873318844674 ] } },
{ "type": "Feature", "properties": { "NAME": "PEACH", "name": "Peach", "lng": -83.8268729374701, "lat": 32.568774225466896 }, "geometry": { "type": "Point", "coordinates": [ -83.8268729374701, 32.568774225466896 ] } },
{ "type": "Feature", "properties": { "NAME": "COLQUITT", "name": "Colquitt", "lng": -83.768821965602072, "lat": 31.188368714309636 }, "geometry": { "type": "Point", "coordinates": [ -83.768821965602072, 31.188368714309636 ] } },
{ "type": "Feature", "properties": { "NAME": "HARALSON", "name": "Haralson", "lng": -85.210999619811702, "lat": 33.794226228337983 }, "geometry": { "type": "Point", "coordinates": [ -85.210999619811702, 33.794226228337983 ] } },
{ "type": "Feature", "properties": { "NAME": "CALHOUN", "name": "Calhoun", "lng": -84.624524755178953, "lat": 31.52922422805673 }, "geometry": { "type": "Point", "coordinates": [ -84.624524755178953, 31.52922422805673 ] } },
{ "type": "Feature", "properties": { "NAME": "TOWNS", "name": "Towns", "lng": -83.737307339828291, "lat": 34.916712048459097 }, "geometry": { "type": "Point", "coordinates": [ -83.737307339828291, 34.916712048459097 ] } },
{ "type": "Feature", "properties": { "NAME": "ROCKDALE", "name": "Rockdale", "lng": -84.026595954209071, "lat": 33.654247650505624 }, "geometry": { "type": "Point", "coordinates": [ -84.026595954209071, 33.654247650505624 ] } },
{ "type": "Feature", "properties": { "NAME": "JASPER", "name": "Jasper", "lng": -83.688058525751757, "lat": 33.316399265391603 }, "geometry": { "type": "Point", "coordinates": [ -83.688058525751757, 33.316399265391603 ] } },
{ "type": "Feature", "properties": { "NAME": "DECATUR", "name": "Decatur", "lng": -84.579069431071545, "lat": 30.878334444666351 }, "geometry": { "type": "Point", "coordinates": [ -84.579069431071545, 30.878334444666351 ] } },
{ "type": "Feature", "properties": { "NAME": "DEKALB", "name": "DeKalb", "lng": -84.22641805793053, "lat": 33.771561192506397 }, "geometry": { "type": "Point", "coordinates": [ -84.22641805793053, 33.771561192506397 ] } },
{ "type": "Feature", "properties": { "NAME": "JACKSON", "name": "Jackson", "lng": -83.566460768795778, "lat": 34.133967544957407 }, "geometry": { "type": "Point", "coordinates": [ -83.566460768795778, 34.133967544957407 ] } },
{ "type": "Feature", "properties": { "NAME": "CRAWFORD", "name": "Crawford", "lng": -83.986329464299345, "lat": 32.714511854634424 }, "geometry": { "type": "Point", "coordinates": [ -83.986329464299345, 32.714511854634424 ] } },
{ "type": "Feature", "properties": { "NAME": "UPSON", "name": "Upson", "lng": -84.299363456069656, "lat": 32.881284123691472 }, "geometry": { "type": "Point", "coordinates": [ -84.299363456069656, 32.881284123691472 ] } },
{ "type": "Feature", "properties": { "NAME": "BENHILL", "name": "Ben Hill", "lng": -83.220465207523844, "lat": 31.759767204880163 }, "geometry": { "type": "Point", "coordinates": [ -83.220465207523844, 31.759767204880163 ] } },
{ "type": "Feature", "properties": { "NAME": "BANKS", "name": "Banks", "lng": -83.49724706419228, "lat": 34.3543282616738 }, "geometry": { "type": "Point", "coordinates": [ -83.49724706419228, 34.3543282616738 ] } },
{ "type": "Feature", "properties": { "NAME": "STEPHENS", "name": "Stephens", "lng": -83.293190211978754, "lat": 34.554044780091203 }, "geometry": { "type": "Point", "coordinates": [ -83.293190211978754, 34.554044780091203 ] } },
{ "type": "Feature", "properties": { "NAME": "CATOOSA", "name": "Catoosa", "lng": -85.138240426551192, "lat": 34.903641426656122 }, "geometry": { "type": "Point", "coordinates": [ -85.138240426551192, 34.903641426656122 ] } },
{ "type": "Feature", "properties": { "NAME": "JOHNSON", "name": "Johnson", "lng": -82.660080312280684, "lat": 32.701461246945811 }, "geometry": { "type": "Point", "coordinates": [ -82.660080312280684, 32.701461246945811 ] } },
{ "type": "Feature", "properties": { "NAME": "HEARD", "name": "Heard", "lng": -85.128334179527286, "lat": 33.297042105417198 }, "geometry": { "type": "Point", "coordinates": [ -85.128334179527286, 33.297042105417198 ] } },
{ "type": "Feature", "properties": { "NAME": "POLK", "name": "Polk", "lng": -85.188146205525868, "lat": 34.001786341004731 }, "geometry": { "type": "Point", "coordinates": [ -85.188146205525868, 34.001786341004731 ] } },
{ "type": "Feature", "properties": { "NAME": "DOUGLAS", "name": "Douglas", "lng": -84.767949411848491, "lat": 33.701894633934003 }, "geometry": { "type": "Point", "coordinates": [ -84.767949411848491, 33.701894633934003 ] } },
{ "type": "Feature", "properties": { "NAME": "CLINCH", "name": "Clinch", "lng": -82.706257292711413, "lat": 30.914995796249425 }, "geometry": { "type": "Point", "coordinates": [ -82.706257292711413, 30.914995796249425 ] } },
{ "type": "Feature", "properties": { "NAME": "LUMPKIN", "name": "Lumpkin", "lng": -84.003029876611549, "lat": 34.571339133740331 }, "geometry": { "type": "Point", "coordinates": [ -84.003029876611549, 34.571339133740331 ] } },
{ "type": "Feature", "properties": { "NAME": "CHATTAHOOCHEE", "name": "Chattahoochee", "lng": -84.787021846656671, "lat": 32.346983858204602 }, "geometry": { "type": "Point", "coordinates": [ -84.787021846656671, 32.346983858204602 ] } },
{ "type": "Feature", "properties": { "NAME": "MERIWETHER", "name": "Meriwether", "lng": -84.688292812529824, "lat": 33.040551527162457 }, "geometry": { "type": "Point", "coordinates": [ -84.688292812529824, 33.040551527162457 ] } },
{ "type": "Feature", "properties": { "NAME": "THOMAS", "name": "Thomas", "lng": -83.919333478521722, "lat": 30.863742298689591 }, "geometry": { "type": "Point", "coordinates": [ -83.919333478521722, 30.863742298689591 ] } },
{ "type": "Feature", "properties": { "NAME": "HARRIS", "name": "Harris", "lng": -84.908890918391521, "lat": 32.736025745565001 }, "geometry": { "type": "Point", "coordinates": [ -84.908890918391521, 32.736025745565001 ] } },
{ "type": "Feature", "properties": { "NAME": "SPALDING", "name": "Spalding", "lng": -84.284096648505582, "lat": 33.26087604091385 }, "geometry": { "type": "Point", "coordinates": [ -84.284096648505582, 33.26087604091385 ] } },
{ "type": "Feature", "properties": { "NAME": "IRWIN", "name": "Irwin", "lng": -83.276356141845554, "lat": 31.602217442077865 }, "geometry": { "type": "Point", "coordinates": [ -83.276356141845554, 31.602217442077865 ] } },
{ "type": "Feature", "properties": { "NAME": "BACON", "name": "Bacon", "lng": -82.452708891510284, "lat": 31.553669315982876 }, "geometry": { "type": "Point", "coordinates": [ -82.452708891510284, 31.553669315982876 ] } },
{ "type": "Feature", "properties": { "NAME": "PULASKI", "name": "Pulaski", "lng": -83.475966722098164, "lat": 32.232306052917032 }, "geometry": { "type": "Point", "coordinates": [ -83.475966722098164, 32.232306052917032 ] } },
{ "type": "Feature", "properties": { "NAME": "WALTON", "name": "Walton", "lng": -83.733868151694892, "lat": 33.781561203312755 }, "geometry": { "type": "Point", "coordinates": [ -83.733868151694892, 33.781561203312755 ] } },
{ "type": "Feature", "properties": { "NAME": "LAURENS", "name": "Laurens", "lng": -82.922216185560629, "lat": 32.463635438286168 }, "geometry": { "type": "Point", "coordinates": [ -82.922216185560629, 32.463635438286168 ] } },
{ "type": "Feature", "properties": { "NAME": "BUTTS", "name": "Butts", "lng": -83.957176257433758, "lat": 33.287882430927674 }, "geometry": { "type": "Point", "coordinates": [ -83.957176257433758, 33.287882430927674 ] } },
{ "type": "Feature", "properties": { "NAME": "MARION", "name": "Marion", "lng": -84.524579564071288, "lat": 32.3535360426105 }, "geometry": { "type": "Point", "coordinates": [ -84.524579564071288, 32.3535360426105 ] } },
{ "type": "Feature", "properties": { "NAME": "MILLER", "name": "Miller", "lng": -84.730783795755414, "lat": 31.164005156003345 }, "geometry": { "type": "Point", "coordinates": [ -84.730783795755414, 31.164005156003345 ] } },
{ "type": "Feature", "properties": { "NAME": "FRANKLIN", "name": "Franklin", "lng": -83.229065858177705, "lat": 34.375393119732308 }, "geometry": { "type": "Point", "coordinates": [ -83.229065858177705, 34.375393119732308 ] } },
{ "type": "Feature", "properties": { "NAME": "HART", "name": "Hart", "lng": -82.964245115687277, "lat": 34.350881962792535 }, "geometry": { "type": "Point", "coordinates": [ -82.964245115687277, 34.350881962792535 ] } },
{ "type": "Feature", "properties": { "NAME": "DOUGHERTY", "name": "Dougherty", "lng": -84.216390213779277, "lat": 31.533463690412063 }, "geometry": { "type": "Point", "coordinates": [ -84.216390213779277, 31.533463690412063 ] } },
{ "type": "Feature", "properties": { "NAME": "WILKINSON", "name": "Wilkinson", "lng": -83.171239124555726, "lat": 32.802380194933932 }, "geometry": { "type": "Point", "coordinates": [ -83.171239124555726, 32.802380194933932 ] } },
{ "type": "Feature", "properties": { "NAME": "JEFFDAVIS", "name": "Jeff Davis", "lng": -82.636784137351356, "lat": 31.805627268062398 }, "geometry": { "type": "Point", "coordinates": [ -82.636784137351356, 31.805627268062398 ] } },
{ "type": "Feature", "properties": { "NAME": "WARE", "name": "Ware", "lng": -82.423711633244793, "lat": 31.053767741678367 }, "geometry": { "type": "Point", "coordinates": [ -82.423711633244793, 31.053767741678367 ] } },
{ "type": "Feature", "properties": { "NAME": "WORTH", "name": "Worth", "lng": -83.850879686731943, "lat": 31.551513185772642 }, "geometry": { "type": "Point", "coordinates": [ -83.850879686731943, 31.551513185772642 ] } },
{ "type": "Feature", "properties": { "NAME": "CLAY", "name": "Clay", "lng": -84.980118687053022, "lat": 31.6262592739856 }, "geometry": { "type": "Point", "coordinates": [ -84.980118687053022, 31.6262592739856 ] } },
{ "type": "Feature", "properties": { "NAME": "CANDLER", "name": "Candler", "lng": -82.073663054112515, "lat": 32.403441674620389 }, "geometry": { "type": "Point", "coordinates": [ -82.073663054112515, 32.403441674620389 ] } },
{ "type": "Feature", "properties": { "NAME": "ATKINSON", "name": "Atkinson", "lng": -82.880045387643605, "lat": 31.297115864049488 }, "geometry": { "type": "Point", "coordinates": [ -82.880045387643605, 31.297115864049488 ] } },
{ "type": "Feature", "properties": { "NAME": "DOOLY", "name": "Dooly", "lng": -83.798785292155259, "lat": 32.157204537541546 }, "geometry": { "type": "Point", "coordinates": [ -83.798785292155259, 32.157204537541546 ] } },
{ "type": "Feature", "properties": { "NAME": "PIKE", "name": "Pike", "lng": -84.389251060589771, "lat": 33.092289764383359 }, "geometry": { "type": "Point", "coordinates": [ -84.389251060589771, 33.092289764383359 ] } },
{ "type": "Feature", "properties": { "NAME": "FLOYD", "name": "Floyd", "lng": -85.214268023643726, "lat": 34.263196274303816 }, "geometry": { "type": "Point", "coordinates": [ -85.214268023643726, 34.263196274303816 ] } },
{ "type": "Feature", "properties": { "NAME": "COWETA", "name": "Coweta", "lng": -84.763374746779434, "lat": 33.353340250567136 }, "geometry": { "type": "Point", "coordinates": [ -84.763374746779434, 33.353340250567136 ] } },
{ "type": "Feature", "properties": { "NAME": "CHATTOOGA", "name": "Chattooga", "lng": -85.345340018861592, "lat": 34.474999760185796 }, "geometry": { "type": "Point", "coordinates": [ -85.345340018861592, 34.474999760185796 ] } },
{ "type": "Feature", "properties": { "NAME": "DAWSON", "name": "Dawson", "lng": -84.170636122954022, "lat": 34.444295156734334 }, "geometry": { "type": "Point", "coordinates": [ -84.170636122954022, 34.444295156734334 ] } },
{ "type": "Feature", "properties": { "NAME": "TROUP", "name": "Troup", "lng": -85.028361831885675, "lat": 33.033528668461642 }, "geometry": { "type": "Point", "coordinates": [ -85.028361831885675, 33.033528668461642 ] } },
{ "type": "Feature", "properties": { "NAME": "FANNIN", "name": "Fannin", "lng": -84.319833307458381, "lat": 34.864084403756422 }, "geometry": { "type": "Point", "coordinates": [ -84.319833307458381, 34.864084403756422 ] } },
{ "type": "Feature", "properties": { "NAME": "GLASCOCK", "name": "Glascock", "lng": -82.61070062299649, "lat": 33.229282885364661 }, "geometry": { "type": "Point", "coordinates": [ -82.61070062299649, 33.229282885364661 ] } },
{ "type": "Feature", "properties": { "NAME": "BARTOW", "name": "Bartow", "lng": -84.84033761399759, "lat": 34.237660232488942 }, "geometry": { "type": "Point", "coordinates": [ -84.84033761399759, 34.237660232488942 ] } },
{ "type": "Feature", "properties": { "NAME": "STEWART", "name": "Stewart", "lng": -84.835217006159354, "lat": 32.078489713360632 }, "geometry": { "type": "Point", "coordinates": [ -84.835217006159354, 32.078489713360632 ] } },
{ "type": "Feature", "properties": { "NAME": "LEE", "name": "Lee", "lng": -84.141130599504862, "lat": 31.779537582089738 }, "geometry": { "type": "Point", "coordinates": [ -84.141130599504862, 31.779537582089738 ] } },
{ "type": "Feature", "properties": { "NAME": "SEMINOLE", "name": "Seminole", "lng": -84.868846466410204, "lat": 30.938779796613272 }, "geometry": { "type": "Point", "coordinates": [ -84.868846466410204, 30.938779796613272 ] } },
{ "type": "Feature", "properties": { "NAME": "COFFEE", "name": "Coffee", "lng": -82.849178968023381, "lat": 31.549308265726669 }, "geometry": { "type": "Point", "coordinates": [ -82.849178968023381, 31.549308265726669 ] } },
{ "type": "Feature", "properties": { "NAME": "LAMAR", "name": "Lamar", "lng": -84.139415206332103, "lat": 33.076541082298256 }, "geometry": { "type": "Point", "coordinates": [ -84.139415206332103, 33.076541082298256 ] } },
{ "type": "Feature", "properties": { "NAME": "TURNER", "name": "Turner", "lng": -83.624083368927955, "lat": 31.716382068602829 }, "geometry": { "type": "Point", "coordinates": [ -83.624083368927955, 31.716382068602829 ] } },
{ "type": "Feature", "properties": { "NAME": "MONROE", "name": "Monroe", "lng": -83.918625024311766, "lat": 33.013912946642414 }, "geometry": { "type": "Point", "coordinates": [ -83.918625024311766, 33.013912946642414 ] } },
{ "type": "Feature", "properties": { "NAME": "GRADY", "name": "Grady", "lng": -84.234476426999592, "lat": 30.874693028113992 }, "geometry": { "type": "Point", "coordinates": [ -84.234476426999592, 30.874693028113992 ] } },
{ "type": "Feature", "properties": { "NAME": "JENKINS", "name": "Jenkins", "lng": -81.963549536238816, "lat": 32.792447271582219 }, "geometry": { "type": "Point", "coordinates": [ -81.963549536238816, 32.792447271582219 ] } },
{ "type": "Feature", "properties": { "NAME": "TAYLOR", "name": "Taylor", "lng": -84.250467714036816, "lat": 32.555481269681586 }, "geometry": { "type": "Point", "coordinates": [ -84.250467714036816, 32.555481269681586 ] } },
{ "type": "Feature", "properties": { "NAME": "PAULDING", "name": "Paulding", "lng": -84.867254337811545, "lat": 33.920547337655464 }, "geometry": { "type": "Point", "coordinates": [ -84.867254337811545, 33.920547337655464 ] } },
{ "type": "Feature", "properties": { "NAME": "TERRELL", "name": "Terrell", "lng": -84.436969905991745, "lat": 31.776998048636429 }, "geometry": { "type": "Point", "coordinates": [ -84.436969905991745, 31.776998048636429 ] } },
{ "type": "Feature", "properties": { "NAME": "WEBSTER", "name": "Webster", "lng": -84.551088684621703, "lat": 32.046849761852805 }, "geometry": { "type": "Point", "coordinates": [ -84.551088684621703, 32.046849761852805 ] } },
{ "type": "Feature", "properties": { "NAME": "WALKER", "name": "Walker", "lng": -85.300962605790374, "lat": 34.735583999780076 }, "geometry": { "type": "Point", "coordinates": [ -85.300962605790374, 34.735583999780076 ] } },
{ "type": "Feature", "properties": { "NAME": "MACON", "name": "Macon", "lng": -84.042493670350424, "lat": 32.358383298419824 }, "geometry": { "type": "Point", "coordinates": [ -84.042493670350424, 32.358383298419824 ] } },
{ "type": "Feature", "properties": { "NAME": "QUITMAN", "name": "Quitman", "lng": -85.018770025818625, "lat": 31.867347385442194 }, "geometry": { "type": "Point", "coordinates": [ -85.018770025818625, 31.867347385442194 ] } },
{ "type": "Feature", "properties": { "NAME": "EARLY", "name": "Early", "lng": -84.903648885722319, "lat": 31.322845575237256 }, "geometry": { "type": "Point", "coordinates": [ -84.903648885722319, 31.322845575237256 ] } },
{ "type": "Feature", "properties": { "NAME": "CRISP", "name": "Crisp", "lng": -83.768064443495419, "lat": 31.922925282983282 }, "geometry": { "type": "Point", "coordinates": [ -83.768064443495419, 31.922925282983282 ] } },
{ "type": "Feature", "properties": { "NAME": "PICKENS", "name": "Pickens", "lng": -84.465575369980527, "lat": 34.464326127743519 }, "geometry": { "type": "Point", "coordinates": [ -84.465575369980527, 34.464326127743519 ] } },
{ "type": "Feature", "properties": { "NAME": "JONES", "name": "Jones", "lng": -83.560491891074179, "lat": 33.025122646430468 }, "geometry": { "type": "Point", "coordinates": [ -83.560491891074179, 33.025122646430468 ] } },
{ "type": "Feature", "properties": { "NAME": "CLARKE", "name": "Clarke", "lng": -83.367340048718972, "lat": 33.951246914927118 }, "geometry": { "type": "Point", "coordinates": [ -83.367340048718972, 33.951246914927118 ] } },
{ "type": "Feature", "properties": { "NAME": "DADE", "name": "Dade", "lng": -85.504424320429379, "lat": 34.854627737020543 }, "geometry": { "type": "Point", "coordinates": [ -85.504424320429379, 34.854627737020543 ] } },
{ "type": "Feature", "properties": { "NAME": "EVANS", "name": "Evans", "lng": -81.886879745970717, "lat": 32.156759357880915 }, "geometry": { "type": "Point", "coordinates": [ -81.886879745970717, 32.156759357880915 ] } },
{ "type": "Feature", "properties": { "NAME": "CHEROKEE", "name": "Cherokee", "lng": -84.476209265929313, "lat": 34.243991903522002 }, "geometry": { "type": "Point", "coordinates": [ -84.476209265929313, 34.243991903522002 ] } },
{ "type": "Feature", "properties": { "NAME": "GORDON", "name": "Gordon", "lng": -84.875848277346989, "lat": 34.503175347470808 }, "geometry": { "type": "Point", "coordinates": [ -84.875848277346989, 34.503175347470808 ] } },
{ "type": "Feature", "properties": { "NAME": "DODGE", "name": "Dodge", "lng": -83.168409814426909, "lat": 32.172212250028274 }, "geometry": { "type": "Point", "coordinates": [ -83.168409814426909, 32.172212250028274 ] } },
{ "type": "Feature", "properties": { "NAME": "TIFT", "name": "Tift", "lng": -83.526600697895205, "lat": 31.457428653899939 }, "geometry": { "type": "Point", "coordinates": [ -83.526600697895205, 31.457428653899939 ] } },
{ "type": "Feature", "properties": { "NAME": "FORSYTH", "name": "Forsyth", "lng": -84.125046615290998, "lat": 34.225526503971118 }, "geometry": { "type": "Point", "coordinates": [ -84.125046615290998, 34.225526503971118 ] } },
{ "type": "Feature", "properties": { "NAME": "LONG", "name": "Long", "lng": -81.745761124664867, "lat": 31.752580030282658 }, "geometry": { "type": "Point", "coordinates": [ -81.745761124664867, 31.752580030282658 ] } },
{ "type": "Feature", "properties": { "NAME": "MORGAN", "name": "Morgan", "lng": -83.492370243946979, "lat": 33.590802173063487 }, "geometry": { "type": "Point", "coordinates": [ -83.492370243946979, 33.590802173063487 ] } },
{ "type": "Feature", "properties": { "NAME": "ECHOLS", "name": "Echols", "lng": -82.893951129546593, "lat": 30.71005500127464 }, "geometry": { "type": "Point", "coordinates": [ -82.893951129546593, 30.71005500127464 ] } },
{ "type": "Feature", "properties": { "NAME": "WILCOX", "name": "Wilcox", "lng": -83.432318637280588, "lat": 31.972867335078348 }, "geometry": { "type": "Point", "coordinates": [ -83.432318637280588, 31.972867335078348 ] } },
{ "type": "Feature", "properties": { "NAME": "MADISON", "name": "Madison", "lng": -83.209038433447091, "lat": 34.127782621499563 }, "geometry": { "type": "Point", "coordinates": [ -83.209038433447091, 34.127782621499563 ] } },
{ "type": "Feature", "properties": { "NAME": "MCINTOSH", "name": "McIntosh", "lng": -81.410344011849631, "lat": 31.496334210341132 }, "geometry": { "type": "Point", "coordinates": [ -81.410344011849631, 31.496334210341132 ] } },
{ "type": "Feature", "properties": { "NAME": "RANDOLPH", "name": "Randolph", "lng": -84.754206566315943, "lat": 31.762642595253784 }, "geometry": { "type": "Point", "coordinates": [ -84.754206566315943, 31.762642595253784 ] } },
{ "type": "Feature", "properties": { "NAME": "EFFINGHAM", "name": "Effingham", "lng": -81.341376721833555, "lat": 32.367359040639535 }, "geometry": { "type": "Point", "coordinates": [ -81.341376721833555, 32.367359040639535 ] } },
{ "type": "Feature", "properties": { "NAME": "WAYNE", "name": "Wayne", "lng": -81.91676990287651, "lat": 31.551477350451847 }, "geometry": { "type": "Point", "coordinates": [ -81.91676990287651, 31.551477350451847 ] } },
{ "type": "Feature", "properties": { "NAME": "WILKES", "name": "Wilkes", "lng": -82.743198496171857, "lat": 33.781944900596265 }, "geometry": { "type": "Point", "coordinates": [ -82.743198496171857, 33.781944900596265 ] } },
{ "type": "Feature", "properties": { "NAME": "GWINNETT", "name": "Gwinnett", "lng": -84.023539123069483, "lat": 33.961910435226905 }, "geometry": { "type": "Point", "coordinates": [ -84.023539123069483, 33.961910435226905 ] } },
{ "type": "Feature", "properties": { "NAME": "COOK", "name": "Cook", "lng": -83.430480594798297, "lat": 31.15401355959829 }, "geometry": { "type": "Point", "coordinates": [ -83.430480594798297, 31.15401355959829 ] } },
{ "type": "Feature", "properties": { "NAME": "SCHLEY", "name": "Schley", "lng": -84.314711620172005, "lat": 32.261600414491028 }, "geometry": { "type": "Point", "coordinates": [ -84.314711620172005, 32.261600414491028 ] } },
{ "type": "Feature", "properties": { "NAME": "TREUTLEN", "name": "Treutlen", "lng": -82.567283788103566, "lat": 32.403882857242259 }, "geometry": { "type": "Point", "coordinates": [ -82.567283788103566, 32.403882857242259 ] } },
{ "type": "Feature", "properties": { "NAME": "", "name": null, "lng": -83.446562010970865, "lat": 32.649356853834753 }, "geometry": { "type": "Point", "coordinates": [ -83.446562010970865, 32.649356853834753 ] } }
]
}
