[
    {
        "pollPlaceName": "BOARD OF ELECTIONS AND REGISTRAR",
        "googlePlaceID": "ChIJFZc46Nty8IgRbZsGMtPyEKs",
        "dates": [
            "03/02/2020 - 03/20/2020 09:00 AM - 05:00 PM"
        ],
        "lat": 31.7778415,
        "lng": -82.35023269999999
    },
    {
        "pollPlaceName": "ATKINSON CO. ELECTION OFFICE",
        "googlePlaceID": "ChIJxfoeqMrT74gR2Fyr7PfziI0",
        "dates": [
            "03/02/2020 - 03/20/2020 08:00 AM - 05:00 PM",
            "03/14/2020 - 03/14/2020 09:00 AM - 04:00 PM"
        ],
        "lat": 31.2926525,
        "lng": -82.84250870000001
    },
    {
        "pollPlaceName": "BACON COUNTY ELECTIONS OFFICE",
        "googlePlaceID": "EiIyMzIgVyAxMnRoIFN0LCBBbG1hLCBHQSAzMTUxMCwgVVNBIhsSGQoUChIJuYsEZ80b8IgRoJuF93lm0MEQ6AE",
        "dates": [
            "03/02/2020 - 03/06/2020 09:00 AM - 05:00 PM",
            "03/09/2020 - 03/13/2020 09:00 AM - 05:00 PM",
            "03/14/2020 - 03/14/2020 09:00 AM - 04:00 PM",
            "03/16/2020 - 03/20/2020 09:00 AM - 05:00 PM"
        ],
        "lat": 31.5413591,
        "lng": -82.4648836
    },
    {
        "pollPlaceName": "BAKER COUNTY COURTHOUSE",
        "googlePlaceID": "EiMxNjcgQmFrZXIgUGwsIE5ld3RvbiwgR0EgMzk4NzAsIFVTQSIbEhkKFAoSCcEICAdZd-2IETFOCuqN8LZaEKcB",
        "dates": [
            "03/02/2020 - 03/20/2020 08:30 AM - 04:30 PM",
            "03/14/2020 - 03/14/2020 08:30 AM - 04:30 PM"
        ],
        "lat": 31.317666,
        "lng": -84.3412951
    },
    {
        "pollPlaceName": "BALDWIN COUNTY COURTHOUSE",
        "googlePlaceID": "ChIJN2-B-t3H9ogRoNNdFcBSTVE",
        "dates": [
            "03/02/2020 - 03/20/2020 08:30 AM - 05:00 PM",
            "03/14/2020 - 03/14/2020 09:00 AM - 04:00 PM"
        ],
        "lat": 33.0815124,
        "lng": -83.2286005
    },
    {
        "pollPlaceName": "BARROW COUNTY ELECTIONS OFFICE",
        "googlePlaceID": "ChIJg54ZrXzn9YgRD-GPSoXyiuE",
        "dates": [
            "03/02/2020 - 03/06/2020 08:00 AM - 05:00 PM",
            "03/07/2020 - 03/07/2020 09:00 AM - 04:00 PM",
            "03/09/2020 - 03/13/2020 08:00 AM - 05:00 PM",
            "03/14/2020 - 03/14/2020 09:00 AM - 04:00 PM",
            "03/16/2020 - 03/20/2020 08:00 AM - 05:00 PM"
        ],
        "lat": 33.9977319,
        "lng": -83.70936909999999
    },
    {
        "pollPlaceName": "ALLATOONA RESOURCE CENTER",
        "googlePlaceID": "ChIJV53fpU9B9YgRGIkTVVVQ5wE",
        "dates": [
            "03/16/2020 - 03/20/2020 08:00 AM - 06:00 PM"
        ],
        "lat": 34.1137254,
        "lng": -84.681162
    },
    {
        "pollPlaceName": "CARTERSVILLE CIVIC CENTER",
        "googlePlaceID": "ChIJ1-FvxxpP9YgRH-WZcTF9jmI",
        "dates": [
            "03/02/2020 - 03/06/2020 08:00 AM - 05:00 PM",
            "03/09/2020 - 03/13/2020 08:00 AM - 05:00 PM",
            "03/16/2020 - 03/20/2020 08:00 AM - 06:00 PM"
        ],
        "lat": 34.1634739,
        "lng": -84.80649760000001
    },
    {
        "pollPlaceName": "MANNING MILL PARK FACILITY",
        "googlePlaceID": "ChIJN3bkNPFU9YgRUU-rkFLF7pw",
        "dates": [
            "03/16/2020 - 03/20/2020 08:00 AM - 06:00 PM"
        ],
        "lat": 34.3433474,
        "lng": -84.90379449999999
    },
    {
        "pollPlaceName": "REGISTRATION OFFICE",
        "googlePlaceID": "ChIJlcAcvsxP9YgR1fjMjWoqOkU",
        "dates": [
            "03/02/2020 - 03/06/2020 08:00 AM - 05:00 PM",
            "03/09/2020 - 03/13/2020 08:00 AM - 05:00 PM",
            "03/14/2020 - 03/14/2020 08:00 AM - 05:00 PM",
            "03/16/2020 - 03/20/2020 08:00 AM - 06:00 PM"
        ],
        "lat": 34.2062407,
        "lng": -84.8141196
    },
    {
        "pollPlaceName": "EARLY/ ADVANCE",
        "googlePlaceID": "ChIJhe6eWeLp8YgRoivK039J-_U",
        "dates": [
            "03/02/2020 - 03/13/2020 07:30 AM - 04:00 PM",
            "03/14/2020 - 03/14/2020 09:00 AM - 04:00 PM",
            "03/16/2020 - 03/20/2020 07:30 AM - 06:30 PM"
        ],
        "lat": 31.7089312,
        "lng": -83.25246159999999
    },
    {
        "pollPlaceName": "COUNTY ADMIN BUILDING",
        "googlePlaceID": "ChIJ2yOny4k97ogRq0LY3krP7zc",
        "dates": [
            "03/02/2020 - 03/13/2020 08:00 AM - 04:30 PM",
            "03/14/2020 - 03/14/2020 09:00 AM - 04:00 PM",
            "03/16/2020 - 03/20/2020 08:00 AM - 04:30 PM"
        ],
        "lat": 31.2084994,
        "lng": -83.2494298
    },
    {
        "pollPlaceName": "MACON BIBB COUNTY BOARD OF ELECTIONS",
        "googlePlaceID": "ChIJ04feGhL884gRm-soH16sE6s",
        "dates": [
            "03/02/2020 - 03/20/2020 08:30 AM - 05:30 PM",
            "03/14/2020 - 03/14/2020 09:00 AM - 04:00 PM"
        ],
        "lat": 32.8114278,
        "lng": -83.66592709999999
    },
    {
        "pollPlaceName": "MACON BIBB COUNTY BOARD OF ELECTIONS",
        "googlePlaceID": "ChIJ04feGhL884gRm-soH16sE6s",
        "dates": [
            "04/27/2020 - 05/15/2020 08:30 AM - 05:30 PM",
            "05/09/2020 - 05/09/2020 09:00 AM - 04:00 PM"
        ],
        "lat": 32.8114278,
        "lng": -83.66592709999999
    },
    {
        "pollPlaceName": "VR OFFICE",
        "googlePlaceID": "ChIJe5eIRW9u8YgRKOgYFq9VGYs",
        "dates": [
            "03/02/2020 - 03/06/2020 08:30 AM - 05:00 PM",
            "03/09/2020 - 03/13/2020 08:30 AM - 05:00 PM",
            "03/14/2020 - 03/14/2020 09:00 AM - 04:00 PM",
            "03/16/2020 - 03/20/2020 08:30 AM - 05:00 PM"
        ],
        "lat": 32.3875693,
        "lng": -83.355355
    },
    {
        "pollPlaceName": "VR OFFICE",
        "googlePlaceID": "ChIJe5eIRW9u8YgRKOgYFq9VGYs",
        "dates": [
            "04/27/2020 - 05/01/2020 08:30 AM - 05:00 PM",
            "05/04/2020 - 05/08/2020 08:30 AM - 05:00 PM",
            "05/09/2020 - 05/09/2020 09:00 AM - 04:00 PM",
            "05/11/2020 - 05/15/2020 08:30 AM - 05:00 PM"
        ],
        "lat": 32.3875693,
        "lng": -83.355355
    },
    {
        "pollPlaceName": "VR OFFICE",
        "googlePlaceID": "ChIJe5eIRW9u8YgRKOgYFq9VGYs",
        "dates": [
            "10/12/2020 - 10/16/2020 08:30 AM - 05:00 PM",
            "10/19/2020 - 10/23/2020 08:30 AM - 05:00 PM",
            "10/24/2020 - 10/24/2020 09:00 AM - 04:00 PM",
            "10/26/2020 - 10/30/2020 08:30 AM - 05:00 PM"
        ],
        "lat": 32.3875693,
        "lng": -83.355355
    },
    {
        "pollPlaceName": "BRANTLEY CO. ELECTIONS",
        "googlePlaceID": "EicxMDMwNSBOIE1haW4gU3QsIE5haHVudGEsIEdBIDMxNTUzLCBVU0EiGxIZChQKEgnV-KTZaE_liBERXMwEzpBusxDBUA",
        "dates": [
            "03/02/2020 - 03/20/2020 08:00 AM - 05:00 PM"
        ],
        "lat": 31.2094192,
        "lng": -81.97996130000001
    },
    {
        "pollPlaceName": "MAIN ELECTIONS OFFICE",
        "googlePlaceID": "ChIJ_Vde9qp_7ogRogDm7RcfoFE",
        "dates": [
            "03/02/2020 - 03/20/2020 09:00 AM - 05:00 PM"
        ],
        "lat": 30.7798113,
        "lng": -83.55219559999999
    },
    {
        "pollPlaceName": "BRYAN CO ADMINISTRATION BLDG",
        "googlePlaceID": "ChIJmcJLWQQO-4gRDJyQOoqB6m8",
        "dates": [
            "03/02/2020 - 03/06/2020 08:00 AM - 05:00 PM",
            "03/09/2020 - 03/13/2020 08:00 AM - 05:00 PM",
            "03/14/2020 - 03/14/2020 09:00 AM - 04:00 PM",
            "03/16/2020 - 03/20/2020 08:00 AM - 05:00 PM"
        ],
        "lat": 31.8811648,
        "lng": -81.2598689
    },
    {
        "pollPlaceName": "BRYAN COUNTY COMMISSIONERS MEETING ROOM",
        "googlePlaceID": "ChIJZzhWwI1W-ogRg6ESBcYQP68",
        "dates": [
            "03/02/2020 - 03/06/2020 08:00 AM - 05:00 PM",
            "03/09/2020 - 03/13/2020 08:00 AM - 05:00 PM",
            "03/14/2020 - 03/14/2020 09:00 AM - 04:00 PM",
            "03/16/2020 - 03/20/2020 08:00 AM - 05:00 PM"
        ],
        "lat": 32.1335816,
        "lng": -81.62117599999999
    },
    {
        "pollPlaceName": "BULLOCH COUNTY ANNEX",
        "googlePlaceID": "ChIJ8UCx2lU_-ogRAGCiyfK-xCI",
        "dates": [
            "03/02/2020 - 03/06/2020 08:00 AM - 05:00 PM",
            "03/09/2020 - 03/13/2020 08:00 AM - 05:00 PM",
            "03/14/2020 - 03/14/2020 09:00 AM - 04:00 PM",
            "03/16/2020 - 03/20/2020 08:00 AM - 05:00 PM"
        ],
        "lat": 32.4519474,
        "lng": -81.7835295
    },
    {
        "pollPlaceName": "COURT HOUSE BURKE CO.",
        "googlePlaceID": "ChIJRw5-8DTv-YgRK_QWjqU0b98",
        "dates": [
            "03/02/2020 - 03/20/2020 09:00 AM - 05:00 PM",
            "03/14/2020 - 03/14/2020 09:00 AM - 04:00 PM"
        ],
        "lat": 33.090532,
        "lng": -82.01549
    },
    {
        "pollPlaceName": "ELECTION OFFICE ADMIN BLDG",
        "googlePlaceID": "ChIJD8ojlipA9IgRUOpaX7DAVmE",
        "dates": [
            "03/02/2020 - 03/06/2020 08:00 AM - 05:00 PM",
            "03/09/2020 - 03/13/2020 08:00 AM - 05:00 PM",
            "03/14/2020 - 03/14/2020 09:00 AM - 04:00 PM",
            "03/16/2020 - 03/20/2020 08:00 AM - 05:00 PM"
        ],
        "lat": 33.293442,
        "lng": -83.97302069999999
    },
    {
        "pollPlaceName": "REGISTRAR OFFICE",
        "googlePlaceID": "ChIJ7Rc1tIyf8ogRNitskxxBAlI",
        "dates": [
            "03/02/2020 - 03/06/2020 08:00 AM - 05:00 PM",
            "03/09/2020 - 03/13/2020 08:00 AM - 05:00 PM",
            "03/14/2020 - 03/14/2020 09:00 AM - 04:00 PM",
            "03/16/2020 - 03/20/2020 08:00 AM - 05:00 PM"
        ],
        "lat": 31.5376621,
        "lng": -84.5996693
    },
    {
        "pollPlaceName": "CAMDEN BOARD ANNEX SATURDAY VOTING",
        "googlePlaceID": "ChIJU6VKWtoE5YgRNVMU53m7QvU",
        "dates": [
            "03/14/2020 - 03/14/2020 09:00 AM - 05:00 PM"
        ],
        "lat": 30.8063527,
        "lng": -81.6310065
    },
    {
        "pollPlaceName": "CAMDEN COUNTY ANNEX",
        "googlePlaceID": "ChIJU6VKWtoE5YgRNVMU53m7QvU",
        "dates": [
            "03/02/2020 - 03/20/2020 08:00 AM - 05:00 PM"
        ],
        "lat": 30.8063527,
        "lng": -81.6310065
    },
    {
        "pollPlaceName": "WOODBINE EARLY VOTING",
        "googlePlaceID": "ChIJf4xTKLoX5YgRJY5OgAxe5-E",
        "dates": [
            "03/09/2020 - 03/20/2020 08:00 AM - 05:00 PM"
        ],
        "lat": 30.9682072,
        "lng": -81.72070579999999
    },
    {
        "pollPlaceName": "JACK STRICKLAND COMMUNITY CENTER",
        "googlePlaceID": "ChIJKYtt_Dty-ogRmvtWkl3n2BY",
        "dates": [
            "03/02/2020 - 03/20/2020 09:00 AM - 05:00 PM"
        ],
        "lat": 32.3947348,
        "lng": -82.06839339999999
    },
    {
        "pollPlaceName": "COUNTY ADMINISTRATION BLDG",
        "googlePlaceID": "ChIJA_Mw4hgvi4gR8lenuBe9DAQ",
        "dates": [
            "03/02/2020 - 03/06/2020 08:00 AM - 05:00 PM",
            "03/09/2020 - 03/13/2020 08:00 AM - 05:00 PM",
            "03/14/2020 - 03/14/2020 09:00 AM - 04:00 PM",
            "03/16/2020 - 03/20/2020 08:00 AM - 05:00 PM"
        ],
        "lat": 33.5841753,
        "lng": -85.0718445
    },
    {
        "pollPlaceName": "POWELL PARK ART CENTER",
        "googlePlaceID": "ChIJ5cFrmtoq9YgRuWgSJoLkUj4",
        "dates": [
            "03/16/2020 - 03/20/2020 08:00 AM - 05:00 PM"
        ],
        "lat": 33.7276261,
        "lng": -84.92889439999999
    },
    {
        "pollPlaceName": "RINGGOLD PRECINCT",
        "googlePlaceID": "ChIJ66Zjgd9vYIgRwpvYO4XV9bQ",
        "dates": [
            "03/02/2020 - 03/06/2020 08:00 AM - 05:00 PM",
            "03/09/2020 - 03/13/2020 08:00 AM - 05:00 PM",
            "03/14/2020 - 03/14/2020 09:00 AM - 04:00 PM",
            "03/16/2020 - 03/20/2020 08:00 AM - 05:00 PM",
            "03/19/2020 - 03/19/2020 08:00 AM - 07:00 PM"
        ],
        "lat": 34.9160681,
        "lng": -85.10651279999999
    },
    {
        "pollPlaceName": "WESTSIDE PRECINCT",
        "googlePlaceID": "ChIJifJRUjFmYIgReNbZYJ5sinE",
        "dates": [
            "03/02/2020 - 03/06/2020 08:00 AM - 05:00 PM",
            "03/09/2020 - 03/13/2020 08:00 AM - 05:00 PM",
            "03/14/2020 - 03/14/2020 09:00 AM - 04:00 PM",
            "03/16/2020 - 03/20/2020 08:00 AM - 05:00 PM",
            "03/19/2020 - 03/19/2020 08:00 AM - 07:00 PM"
        ],
        "lat": 34.9615427,
        "lng": -85.22515779999999
    },
    {
        "pollPlaceName": "ST. GEORGE COUNTY BLDG.",
        "googlePlaceID": "ChIJ1cWtZCyb5YgRF66eLIgtahs",
        "dates": [
            "03/07/2020 - 03/07/2020 09:00 AM - 04:00 PM"
        ],
        "lat": 30.5210686,
        "lng": -82.03761349999999
    },
    {
        "pollPlaceName": "ISLANDS LIBRARY",
        "googlePlaceID": "ChIJA4_CGuB3-4gRft9KoF35oQ4",
        "dates": [
            "03/16/2020 - 03/20/2020 10:00 AM - 04:00 PM"
        ],
        "lat": 32.0360724,
        "lng": -81.008451
    },
    {
        "pollPlaceName": "MOSQUITO CONTROL",
        "googlePlaceID": "ChIJwW6hD5ah-4gRlRTOBONmQG8",
        "dates": [
            "03/16/2020 - 03/20/2020 09:00 AM - 04:00 PM"
        ],
        "lat": 32.1180197,
        "lng": -81.1918194
    },
    {
        "pollPlaceName": "POOLER CITY HALL",
        "googlePlaceID": "ChIJozo4njSh-4gRR9z_QmH4XJQ",
        "dates": [
            "03/16/2020 - 03/20/2020 10:00 AM - 04:00 PM"
        ],
        "lat": 32.1156821,
        "lng": -81.2502054
    },
    {
        "pollPlaceName": "SOUTHWEST LIBRARY",
        "googlePlaceID": "ChIJ345g8TkL-4gRA5JcHMEkk58",
        "dates": [
            "03/02/2020 - 03/06/2020 10:00 AM - 04:00 PM",
            "03/09/2020 - 03/13/2020 10:00 AM - 04:00 PM",
            "03/16/2020 - 03/20/2020 10:00 AM - 04:00 PM"
        ],
        "lat": 31.9857137,
        "lng": -81.1758708
    },
    {
        "pollPlaceName": "WEST BROAD STREET YMCA",
        "googlePlaceID": "ChIJW2YJfEee-4gReKzjuaDPECE",
        "dates": [
            "03/16/2020 - 03/20/2020 09:00 AM - 04:00 PM"
        ],
        "lat": 32.0665134,
        "lng": -81.10538489999999
    },
    {
        "pollPlaceName": "UNIFIED GOVT OFFICES OF CUSSETA-CHATTAHOOCHEE COUNTY",
        "googlePlaceID": "ChIJRzOpwiQm84gRBcZysg4DNSE",
        "dates": [
            "03/02/2020 - 03/20/2020 09:00 AM - 05:00 PM",
            "03/14/2020 - 03/14/2020 09:00 AM - 04:00 PM"
        ],
        "lat": 32.3080016,
        "lng": -84.7641763
    },
    {
        "pollPlaceName": "CHATTOOGA COUNTY REGISTRARS OFFICE",
        "googlePlaceID": "ChIJIyU0PzEhYIgRj89Brg-vPOM",
        "dates": [
            "03/02/2020 - 03/06/2020 08:30 AM - 05:00 PM",
            "03/09/2020 - 03/13/2020 08:30 AM - 05:00 PM",
            "03/14/2020 - 03/14/2020 09:00 AM - 04:00 PM",
            "03/16/2020 - 03/20/2020 08:30 AM - 05:00 PM"
        ],
        "lat": 34.4801287,
        "lng": -85.34841329999999
    },
    {
        "pollPlaceName": "BALL GROUND PUBLIC LIBRARY",
        "googlePlaceID": "ChIJm7o1LLR99YgRmMxgVWG_Yws",
        "dates": [
            "03/14/2020 - 03/14/2020 09:00 AM - 04:00 PM",
            "03/16/2020 - 03/20/2020 08:30 AM - 07:00 PM"
        ],
        "lat": 34.340489,
        "lng": -84.37824300000001
    },
    {
        "pollPlaceName": "CHEROKEE COUNTY BOARD OF ELECTIONS",
        "googlePlaceID": "ChIJHRNuQqRl9YgR4wrvTcIR9o4",
        "dates": [
            "03/02/2020 - 03/06/2020 08:30 AM - 05:00 PM",
            "03/09/2020 - 03/13/2020 08:30 AM - 05:00 PM",
            "03/14/2020 - 03/14/2020 09:00 AM - 04:00 PM",
            "03/16/2020 - 03/20/2020 08:30 AM - 07:00 PM"
        ],
        "lat": 34.2365748,
        "lng": -84.4872694
    },
    {
        "pollPlaceName": "HICKORY FLAT PUBLIC LIBRARY",
        "googlePlaceID": "ChIJKTemRTdw9YgRdQoa9xV55hw",
        "dates": [
            "03/14/2020 - 03/14/2020 09:00 AM - 04:00 PM",
            "03/16/2020 - 03/20/2020 08:30 AM - 07:00 PM"
        ],
        "lat": 34.17043,
        "lng": -84.421435
    },
    {
        "pollPlaceName": "ROSE CREEK PUBLIC LIBRARY",
        "googlePlaceID": "ChIJDWA0xYVp9YgRRWbzJQvZ4-c",
        "dates": [
            "03/14/2020 - 03/14/2020 09:00 AM - 04:00 PM",
            "03/16/2020 - 03/20/2020 08:30 AM - 07:00 PM"
        ],
        "lat": 34.129098,
        "lng": -84.572572
    },
    {
        "pollPlaceName": "SOUTH CHEROKEE ANNEX REC CENTER",
        "googlePlaceID": "ChIJP2zIWANs9YgRVnNJYdFuzK4",
        "dates": [
            "03/02/2020 - 03/06/2020 08:30 AM - 05:00 PM",
            "03/09/2020 - 03/13/2020 08:30 AM - 05:00 PM",
            "03/14/2020 - 03/14/2020 09:00 AM - 04:00 PM",
            "03/16/2020 - 03/20/2020 08:30 AM - 07:00 PM"
        ],
        "lat": 34.1144504,
        "lng": -84.5126392
    },
    {
        "pollPlaceName": "ACC CITY HALL",
        "googlePlaceID": "ChIJd8oP39hs9ogRFffxIGjMDYo",
        "dates": [
            "03/16/2020 - 03/17/2020 08:00 AM - 05:00 PM",
            "03/18/2020 - 03/18/2020 08:00 AM - 07:00 PM",
            "03/19/2020 - 03/20/2020 08:00 AM - 05:00 PM"
        ],
        "lat": 33.9596701,
        "lng": -83.376393
    },
    {
        "pollPlaceName": "ACC COORPERATIVE EXTENSION OFFICE",
        "googlePlaceID": "ChIJMeKSbAVz9ogRD13IbPvsFMg",
        "dates": [
            "03/16/2020 - 03/19/2020 10:00 AM - 07:00 PM",
            "03/20/2020 - 03/20/2020 10:00 AM - 05:00 PM"
        ],
        "lat": 33.9452336,
        "lng": -83.4738057
    },
    {
        "pollPlaceName": "ATHENS REGIONAL  LIBRARY",
        "googlePlaceID": "ChIJkcDKvG1t9ogRc204BIY4084",
        "dates": [
            "03/16/2020 - 03/19/2020 10:00 AM - 07:00 PM",
            "03/20/2020 - 03/20/2020 10:00 AM - 05:00 PM"
        ],
        "lat": 33.9449534,
        "lng": -83.40355790000001
    },
    {
        "pollPlaceName": "BOARD OF ELECTIONS OFFICE",
        "googlePlaceID": "ChIJXRey29hs9ogR1YNG04r6j7Q",
        "dates": [
            "03/02/2020 - 03/17/2020 08:00 AM - 05:00 PM",
            "03/02/2020 - 03/20/2020 08:00 AM - 05:00 PM",
            "03/14/2020 - 03/14/2020 09:00 AM - 04:00 PM",
            "03/15/2020 - 03/15/2020 01:00 PM - 05:00 PM",
            "03/18/2020 - 03/18/2020 08:00 AM - 07:00 PM",
            "03/19/2020 - 03/20/2020 08:00 AM - 05:00 PM"
        ],
        "lat": 33.9594279,
        "lng": -83.3767269
    },
    {
        "pollPlaceName": "MIRIAM MOORE COMMUNITY CENTER",
        "googlePlaceID": "ChIJvy2l47hs9ogR1GBFTVHWm5c",
        "dates": [
            "03/16/2020 - 03/19/2020 10:00 AM - 07:00 PM",
            "03/20/2020 - 03/20/2020 10:00 AM - 05:00 PM"
        ],
        "lat": 33.959218,
        "lng": -83.35511199999999
    },
    {
        "pollPlaceName": "CLAY COUNTY COURTHOUSE",
        "googlePlaceID": "ChIJZz5jZ8FWjYgRcTybNtDptTw",
        "dates": [
            "03/02/2020 - 03/20/2020 08:30 AM - 04:00 PM",
            "03/14/2020 - 03/14/2020 09:00 AM - 04:00 PM"
        ],
        "lat": 31.605324,
        "lng": -85.0488835
    },
    {
        "pollPlaceName": "CARL RHODENIZER RECREATION CENTER",
        "googlePlaceID": "ChIJwXikFlr_9IgRCXg2XHdBo8g",
        "dates": [
            "03/02/2020 - 03/06/2020 08:00 AM - 05:00 PM",
            "03/09/2020 - 03/13/2020 08:00 AM - 05:00 PM",
            "03/14/2020 - 03/14/2020 09:00 AM - 04:00 PM",
            "03/15/2020 - 03/15/2020 12:00 PM - 05:00 PM",
            "03/16/2020 - 03/20/2020 08:00 AM - 07:00 PM"
        ],
        "lat": 33.5893002,
        "lng": -84.27672799999999
    },
    {
        "pollPlaceName": "ELECTIONS AND REGISTRATION",
        "googlePlaceID": "ChIJgU5HJYj59IgRlEXE_mUIChU",
        "dates": [
            "03/02/2020 - 03/06/2020 08:00 AM - 05:00 PM",
            "03/09/2020 - 03/13/2020 08:00 AM - 05:00 PM",
            "03/14/2020 - 03/14/2020 09:00 AM - 04:00 PM",
            "03/15/2020 - 03/15/2020 12:00 PM - 05:00 PM",
            "03/16/2020 - 03/20/2020 08:00 AM - 07:00 PM"
        ],
        "lat": 33.5204667,
        "lng": -84.352998
    },
    {
        "pollPlaceName": "LEE HEADQUARTERS LIBRARY",
        "googlePlaceID": "ChIJg3OY59z79IgRAN95xXSOVBg",
        "dates": [
            "03/02/2020 - 03/06/2020 08:00 AM - 05:00 PM",
            "03/09/2020 - 03/13/2020 08:00 AM - 05:00 PM",
            "03/14/2020 - 03/14/2020 09:00 AM - 04:00 PM",
            "03/15/2020 - 03/15/2020 12:00 PM - 05:00 PM",
            "03/16/2020 - 03/20/2020 08:00 AM - 07:00 PM"
        ],
        "lat": 33.5532526,
        "lng": -84.36332349999999
    },
    {
        "pollPlaceName": "MORROW MUNICIPAL COMPLEX",
        "googlePlaceID": "ChIJYwQcgbH-9IgRxs-GF2DirYY",
        "dates": [
            "03/02/2020 - 03/06/2020 08:00 AM - 05:00 PM",
            "03/09/2020 - 03/13/2020 08:00 AM - 05:00 PM",
            "03/14/2020 - 03/14/2020 09:00 AM - 04:00 PM",
            "03/15/2020 - 03/15/2020 12:00 PM - 05:00 PM",
            "03/16/2020 - 03/20/2020 08:00 AM - 07:00 PM"
        ],
        "lat": 33.5836382,
        "lng": -84.3413051
    },
    {
        "pollPlaceName": "SOUTH CLAYTON RECREATION CENTER",
        "googlePlaceID": "ChIJkzaNFR_39IgRZ6L0K55tm7U",
        "dates": [
            "03/02/2020 - 03/06/2020 08:00 AM - 05:00 PM",
            "03/09/2020 - 03/13/2020 08:00 AM - 05:00 PM",
            "03/14/2020 - 03/14/2020 09:00 AM - 04:00 PM",
            "03/15/2020 - 03/15/2020 12:00 PM - 05:00 PM",
            "03/16/2020 - 03/20/2020 08:00 AM - 07:00 PM"
        ],
        "lat": 33.4476278,
        "lng": -84.3316079
    },
    {
        "pollPlaceName": "VIRGINIA BURTON GRAY RECREATION CTR",
        "googlePlaceID": "ChIJx7IUI6389IgRbOJenQ-ccdo",
        "dates": [
            "03/02/2020 - 03/06/2020 08:00 AM - 05:00 PM",
            "03/09/2020 - 03/13/2020 08:00 AM - 05:00 PM",
            "03/14/2020 - 03/14/2020 09:00 AM - 04:00 PM",
            "03/15/2020 - 03/15/2020 12:00 PM - 05:00 PM",
            "03/16/2020 - 03/20/2020 08:00 AM - 07:00 PM"
        ],
        "lat": 33.5912927,
        "lng": -84.43720560000001
    },
    {
        "pollPlaceName": "2 CENTRAL- SENIOR WELLNESS CENTER",
        "googlePlaceID": "ChIJ8Sd1JmYW9YgRH9_EdgctU-U",
        "dates": [
            "03/02/2020 - 03/06/2020 07:00 AM - 07:00 PM",
            "03/07/2020 - 03/07/2020 08:00 AM - 05:00 PM",
            "03/09/2020 - 03/13/2020 07:00 AM - 07:00 PM",
            "03/14/2020 - 03/14/2020 08:00 AM - 05:00 PM",
            "03/16/2020 - 03/20/2020 07:00 AM - 07:00 PM"
        ],
        "lat": 33.9260497,
        "lng": -84.5744404
    },
    {
        "pollPlaceName": "3 NORTH- NORTH COBB SENIOR CENTER",
        "googlePlaceID": "ChIJjXFLuJBA9YgRXaT0k2mVsC0",
        "dates": [
            "03/14/2020 - 03/14/2020 08:00 AM - 05:00 PM",
            "03/16/2020 - 03/20/2020 07:00 AM - 07:00 PM"
        ],
        "lat": 34.0499644,
        "lng": -84.6628527
    },
    {
        "pollPlaceName": "4 SOUTH- RIVERSIDE EPICENTER",
        "googlePlaceID": "ChIJvcdSmS4Z9YgRP7jKDyKkG9o",
        "dates": [
            "03/14/2020 - 03/14/2020 08:00 AM - 05:00 PM",
            "03/16/2020 - 03/20/2020 07:00 AM - 07:00 PM"
        ],
        "lat": 33.7719694,
        "lng": -84.5573057
    },
    {
        "pollPlaceName": "5 EAST- EAST COBB GOVT SVC CENTER",
        "googlePlaceID": "ChIJrx8sgpMN9YgRZ2FRoNH8A3M",
        "dates": [
            "03/14/2020 - 03/14/2020 08:00 AM - 05:00 PM",
            "03/16/2020 - 03/20/2020 07:00 AM - 07:00 PM"
        ],
        "lat": 33.9628857,
        "lng": -84.4229117
    },
    {
        "pollPlaceName": "6 WEST- WARD RECREATION CENTER",
        "googlePlaceID": "ChIJQ3BrE_k79YgRx_j_jk3bmIA",
        "dates": [
            "03/14/2020 - 03/14/2020 08:00 AM - 05:00 PM",
            "03/16/2020 - 03/20/2020 07:00 AM - 07:00 PM"
        ],
        "lat": 33.9422063,
        "lng": -84.695093
    },
    {
        "pollPlaceName": "7  NOONDAY BAPTIST CHURCH",
        "googlePlaceID": "ChIJKdzjyV9r9YgRSllL7EMiSO4",
        "dates": [
            "03/16/2020 - 03/20/2020 07:00 AM - 07:00 PM"
        ],
        "lat": 34.0523975,
        "lng": -84.5244525
    },
    {
        "pollPlaceName": "8 TIM D LEE SENIOR CENTER",
        "googlePlaceID": "ChIJ8WolvTNt9YgR7yvYeAosPGc",
        "dates": [
            "03/16/2020 - 03/20/2020 07:00 AM - 07:00 PM"
        ],
        "lat": 34.0321854,
        "lng": -84.4661539
    },
    {
        "pollPlaceName": "9 RON ANDERSON REC. CENTER",
        "googlePlaceID": "ChIJI2ootcY89YgRk0hjaj2X2fA",
        "dates": [
            "03/16/2020 - 03/20/2020 07:00 AM - 07:00 PM"
        ],
        "lat": 33.8764671,
        "lng": -84.6647552
    },
    {
        "pollPlaceName": "A10 WINDY HILL COMMUNITY CENTER",
        "googlePlaceID": "ChIJzV7ffOAQ9YgRm6sBuTvcDQY",
        "dates": [
            "03/16/2020 - 03/20/2020 07:00 AM - 07:00 PM"
        ],
        "lat": 33.8945101,
        "lng": -84.5006532
    },
    {
        "pollPlaceName": "ELECTIONS & REGISTRATION OFFICE",
        "googlePlaceID": "ChIJLbDvEJAr8IgRa3F73HqCuBY",
        "dates": [
            "03/02/2020 - 03/20/2020 08:30 AM - 05:00 PM",
            "03/02/2020 - 03/20/2020 08:00 AM - 05:00 PM",
            "03/14/2020 - 03/14/2020 09:00 AM - 04:00 PM",
            "03/14/2020 - 03/14/2020 09:00 AM - 04:00 PM"
        ],
        "lat": 31.5077855,
        "lng": -82.85240929999999
    },
    {
        "pollPlaceName": "COLUMBIA COUNTY BOARD OF ELECTIONS, BUILDING G3",
        "googlePlaceID": "ChIJY9y2U6zU-YgRhU1ywYaqQXA",
        "dates": [
            "03/02/2020 - 03/20/2020 08:00 AM - 05:00 PM",
            "03/14/2020 - 03/14/2020 09:00 AM - 04:00 PM"
        ],
        "lat": 33.543379,
        "lng": -82.13576839999999
    },
    {
        "pollPlaceName": "PATRIOTS PARK",
        "googlePlaceID": "ChIJuyJUksV_94gRtITPct_lMlY",
        "dates": [
            "03/02/2020 - 03/20/2020 08:00 AM - 05:00 PM",
            "03/14/2020 - 03/14/2020 09:00 AM - 04:00 PM"
        ],
        "lat": 33.5200106,
        "lng": -82.2295934
    },
    {
        "pollPlaceName": "COOK COUNTY ADMINISTRATION BUILDING",
        "googlePlaceID": "ChIJ-VYr0J4S7ogRwObA0SGd514",
        "dates": [
            "03/02/2020 - 03/06/2020 08:30 AM - 04:30 PM",
            "03/09/2020 - 03/13/2020 08:30 AM - 04:30 PM",
            "03/14/2020 - 03/14/2020 09:00 AM - 04:00 PM",
            "03/16/2020 - 03/20/2020 08:30 AM - 04:30 PM"
        ],
        "lat": 31.1210889,
        "lng": -83.41678139999999
    },
    {
        "pollPlaceName": "COOK COUNTY ADMINISTRATION BUILDING",
        "googlePlaceID": "ChIJ-VYr0J4S7ogRwObA0SGd514",
        "dates": [
            "03/02/2020 - 03/06/2020 08:30 AM - 04:30 PM",
            "03/09/2020 - 03/13/2020 08:30 AM - 04:30 PM",
            "03/14/2020 - 03/14/2020 09:00 AM - 04:00 PM",
            "03/16/2020 - 03/20/2020 08:30 AM - 04:30 PM"
        ],
        "lat": 31.1210889,
        "lng": -83.41678139999999
    },
    {
        "pollPlaceName": "EAST SIDE ADV. VOTING SITE AT CENTRAL COMPLEX",
        "googlePlaceID": "Eik2NSBMaXRlcmFyeSBMbiwgU2hhcnBzYnVyZywgR0EgMzAyNzcsIFVTQSIaEhgKFAoSCQEjtYA-wfSIEe4QUpVR9WdWEEE",
        "dates": [
            "03/02/2020 - 03/20/2020 08:30 AM - 04:30 PM",
            "03/14/2020 - 03/14/2020 09:00 AM - 04:00 PM"
        ],
        "lat": 33.3862782,
        "lng": -84.6712689
    },
    {
        "pollPlaceName": "ADMIN.BLDG CMM/ROOM",
        "googlePlaceID": "ChIJJdDClK1OYIgR0LTWqrRC2Tc",
        "dates": [
            "03/02/2020 - 03/05/2020 08:00 AM - 05:00 PM",
            "03/06/2020 - 03/06/2020 08:00 AM - 02:00 PM",
            "03/09/2020 - 03/12/2020 08:00 AM - 05:00 PM",
            "03/13/2020 - 03/13/2020 08:00 AM - 02:00 PM",
            "03/14/2020 - 03/14/2020 09:00 AM - 04:00 PM",
            "03/16/2020 - 03/19/2020 08:00 AM - 05:00 PM",
            "03/20/2020 - 03/20/2020 08:00 AM - 02:00 PM"
        ],
        "lat": 34.8720856,
        "lng": -85.5107689
    },
    {
        "pollPlaceName": "DAWSON CO ELECT & REG OFFICE",
        "googlePlaceID": "ChIJAUMPeOd8X4gR4gFTlG3zR9s",
        "dates": [
            "03/02/2020 - 03/06/2020 08:00 AM - 05:00 PM",
            "03/09/2020 - 03/13/2020 08:00 AM - 05:00 PM",
            "03/14/2020 - 03/14/2020 09:00 AM - 04:00 PM",
            "03/16/2020 - 03/20/2020 08:00 AM - 05:00 PM"
        ],
        "lat": 34.4201781,
        "lng": -84.1230221
    },
    {
        "pollPlaceName": "AV- FIRST BAPTIST CHURCH DECATUR",
        "googlePlaceID": "ChIJeVSQWxYH9YgRQ3vx7KQRdg0",
        "dates": [
            "03/16/2020 - 03/20/2020 07:00 AM - 07:00 PM"
        ],
        "lat": 33.778788,
        "lng": -84.297573
    },
    {
        "pollPlaceName": "AV-BESSIE BRANHAM RECREATION CENTER",
        "googlePlaceID": "ChIJt8IoLi0B9YgRkpIOda8ILLA",
        "dates": [
            "03/16/2020 - 03/20/2020 07:00 AM - 07:00 PM"
        ],
        "lat": 33.7549355,
        "lng": -84.32063950000001
    },
    {
        "pollPlaceName": "AV-BRIARWOOD RECREATION CENTER",
        "googlePlaceID": "ChIJlSbZsJ4I9YgR16ec4xz2mek",
        "dates": [
            "03/16/2020 - 03/20/2020 07:00 AM - 07:00 PM"
        ],
        "lat": 33.8496823,
        "lng": -84.3286609
    },
    {
        "pollPlaceName": "AV-DUNWOODY LIBRARY",
        "googlePlaceID": "ChIJNeiDSt0L9YgRWHwWL540OR8",
        "dates": [
            "03/02/2020 - 03/06/2020 07:00 AM - 07:00 PM",
            "03/07/2020 - 03/07/2020 09:00 AM - 04:00 PM",
            "03/09/2020 - 03/13/2020 07:00 AM - 07:00 PM",
            "03/14/2020 - 03/14/2020 09:00 AM - 04:00 PM",
            "03/15/2020 - 03/15/2020 12:00 PM - 04:00 PM",
            "03/16/2020 - 03/20/2020 07:00 AM - 08:00 PM"
        ],
        "lat": 33.9446855,
        "lng": -84.3319777
    },
    {
        "pollPlaceName": "AV-EAST DEKALB/BEREAN",
        "googlePlaceID": "ChIJCw2tig6s9YgRanmPZbd6KUk",
        "dates": [
            "03/16/2020 - 03/20/2020 07:00 AM - 07:00 PM"
        ],
        "lat": 33.7335465,
        "lng": -84.17907880000001
    },
    {
        "pollPlaceName": "AV-HOUSE OF HOPE ATLANTA",
        "googlePlaceID": "ChIJu4_yO-eq9YgRgw429dpszP8",
        "dates": [
            "03/16/2020 - 03/20/2020 07:00 AM - 07:00 PM"
        ],
        "lat": 33.68638019999999,
        "lng": -84.2339803
    },
    {
        "pollPlaceName": "AV-MEMORIAL 1",
        "googlePlaceID": "ChIJn2WMG7-p9YgRJYeGlTaeXx0",
        "dates": [
            "03/02/2020 - 03/06/2020 07:00 AM - 07:00 PM",
            "03/07/2020 - 03/07/2020 09:00 AM - 04:00 PM",
            "03/09/2020 - 03/13/2020 07:00 AM - 07:00 PM",
            "03/14/2020 - 03/14/2020 09:00 AM - 04:00 PM",
            "03/15/2020 - 03/15/2020 12:00 PM - 04:00 PM",
            "03/16/2020 - 03/20/2020 07:00 AM - 08:00 PM"
        ],
        "lat": 33.7780804,
        "lng": -84.246648
    },
    {
        "pollPlaceName": "AV-MEMORIAL 2",
        "googlePlaceID": "ChIJn2WMG7-p9YgRJYeGlTaeXx0",
        "dates": [
            "03/02/2020 - 03/06/2020 07:00 AM - 07:00 PM",
            "03/07/2020 - 03/07/2020 09:00 AM - 04:00 PM",
            "03/09/2020 - 03/13/2020 07:00 AM - 07:00 PM",
            "03/14/2020 - 03/14/2020 09:00 AM - 04:00 PM",
            "03/15/2020 - 03/15/2020 12:00 PM - 04:00 PM",
            "03/16/2020 - 03/20/2020 07:00 AM - 08:00 PM"
        ],
        "lat": 33.7780804,
        "lng": -84.246648
    },
    {
        "pollPlaceName": "AV-NORTH DEKALB SENIOR CENTER",
        "googlePlaceID": "ChIJ-RirYasJ9YgRzPOxZq-pZq8",
        "dates": [
            "03/16/2020 - 03/20/2020 07:00 AM - 07:00 PM"
        ],
        "lat": 33.8897744,
        "lng": -84.3073368
    },
    {
        "pollPlaceName": "AV-REID H. COFER LIBRARY",
        "googlePlaceID": "ChIJYz3nJDGm9YgRPtMey7OqyRs",
        "dates": [
            "03/09/2020 - 03/13/2020 07:00 AM - 07:00 PM",
            "03/14/2020 - 03/14/2020 09:00 AM - 04:00 PM",
            "03/16/2020 - 03/20/2020 07:00 AM - 07:00 PM"
        ],
        "lat": 33.8557244,
        "lng": -84.2205517
    },
    {
        "pollPlaceName": "AV-SOUTH DEKALB",
        "googlePlaceID": "ChIJj71haIAA9YgRy36SwFtJwmU",
        "dates": [
            "03/02/2020 - 03/06/2020 09:00 AM - 08:00 PM",
            "03/07/2020 - 03/07/2020 09:00 AM - 04:00 PM",
            "03/09/2020 - 03/13/2020 09:00 AM - 08:00 PM",
            "03/14/2020 - 03/14/2020 09:00 AM - 04:00 PM",
            "03/15/2020 - 03/15/2020 12:00 PM - 04:00 PM",
            "03/16/2020 - 03/20/2020 09:00 AM - 08:00 PM"
        ],
        "lat": 33.708728,
        "lng": -84.2748135
    },
    {
        "pollPlaceName": "AV-STONECREST LIBRARY",
        "googlePlaceID": "ChIJO7hubnqt9YgRyFOjv5ZUC_A",
        "dates": [
            "03/09/2020 - 03/13/2020 07:00 AM - 07:00 PM",
            "03/14/2020 - 03/14/2020 09:00 AM - 04:00 PM",
            "03/16/2020 - 03/20/2020 07:00 AM - 07:00 PM"
        ],
        "lat": 33.694361,
        "lng": -84.1097277
    },
    {
        "pollPlaceName": "DODGE COUNTY REGISTRARS OFFICE",
        "googlePlaceID": "ChIJRXCrrSQK8YgRcLrfWao27yo",
        "dates": [
            "03/02/2020 - 03/20/2020 09:00 AM - 05:00 PM"
        ],
        "lat": 32.2009748,
        "lng": -83.1754335
    },
    {
        "pollPlaceName": "VIENNA VOTING PRECINCT",
        "googlePlaceID": "ChIJbQXKdewx8ogRjzi5BH44dv8",
        "dates": [
            "03/02/2020 - 03/20/2020 09:00 AM - 05:00 PM"
        ],
        "lat": 32.0959896,
        "lng": -83.77990810000001
    },
    {
        "pollPlaceName": "CANDY ROOM",
        "googlePlaceID": "ChIJWyXolXt58ogRPej80W3cSt8",
        "dates": [
            "03/14/2020 - 03/14/2020 09:00 AM - 04:00 PM"
        ],
        "lat": 31.5789023,
        "lng": -84.1503563
    },
    {
        "pollPlaceName": "ELECTIONS OFFICE",
        "googlePlaceID": "ChIJhT-4Hnt58ogRMbDll7InAmg",
        "dates": [
            "03/02/2020 - 03/06/2020 08:30 AM - 05:00 PM",
            "03/02/2020 - 03/06/2020 08:30 AM - 05:00 PM",
            "03/02/2020 - 03/06/2020 08:00 AM - 05:00 PM",
            "03/02/2020 - 03/06/2020 08:15 AM - 05:00 PM",
            "03/02/2020 - 03/06/2020 08:00 AM - 05:00 PM",
            "03/02/2020 - 03/06/2020 08:00 AM - 05:00 PM",
            "03/02/2020 - 03/20/2020 08:30 AM - 05:00 PM",
            "03/02/2020 - 03/20/2020 08:00 AM - 06:00 PM",
            "03/09/2020 - 03/13/2020 08:30 AM - 05:00 PM",
            "03/09/2020 - 03/13/2020 08:30 AM - 05:00 PM",
            "03/09/2020 - 03/13/2020 08:00 AM - 05:00 PM",
            "03/09/2020 - 03/13/2020 08:15 AM - 05:00 PM",
            "03/09/2020 - 03/13/2020 08:00 AM - 05:00 PM",
            "03/09/2020 - 03/13/2020 08:00 AM - 05:00 PM",
            "03/14/2020 - 03/14/2020 09:00 AM - 04:00 PM",
            "03/14/2020 - 03/14/2020 09:00 AM - 04:00 PM",
            "03/14/2020 - 03/14/2020 09:00 AM - 04:00 PM",
            "03/14/2020 - 03/14/2020 09:00 AM - 04:00 PM",
            "03/14/2020 - 03/14/2020 09:00 AM - 04:00 PM",
            "03/14/2020 - 03/14/2020 09:00 AM - 04:00 PM",
            "03/14/2020 - 03/14/2020 09:00 AM - 04:00 PM",
            "03/15/2020 - 03/15/2020 01:00 PM - 05:00 PM",
            "03/16/2020 - 03/20/2020 08:30 AM - 05:00 PM",
            "03/16/2020 - 03/20/2020 08:30 AM - 05:00 PM",
            "03/16/2020 - 03/20/2020 08:00 AM - 05:00 PM",
            "03/16/2020 - 03/20/2020 08:15 AM - 05:00 PM",
            "03/16/2020 - 03/20/2020 07:00 AM - 07:00 PM",
            "03/16/2020 - 03/20/2020 08:00 AM - 05:00 PM"
        ],
        "lat": 31.5778038,
        "lng": -84.1523957
    },
    {
        "pollPlaceName": "0730-OLD COURTHOUSE",
        "googlePlaceID": "ChIJgyZh90Am9YgRD6FHvc-bkME",
        "dates": [
            "03/16/2020 - 03/20/2020 08:00 AM - 06:00 PM"
        ],
        "lat": 33.749083,
        "lng": -84.750507
    },
    {
        "pollPlaceName": "0785-BOUNDARY WATERS AQUATIC CENTER",
        "googlePlaceID": "ChIJ-08HVGXf9IgRq6yA3f0MlhA",
        "dates": [
            "03/16/2020 - 03/20/2020 08:00 AM - 06:00 PM"
        ],
        "lat": 33.669201,
        "lng": -84.6603903
    },
    {
        "pollPlaceName": "1260- DOG RIVER LIBRARY",
        "googlePlaceID": "ChIJBUMl0vDW9IgRx6PUjf0LU1E",
        "dates": [
            "03/16/2020 - 03/20/2020 08:00 AM - 06:00 PM"
        ],
        "lat": 33.6379688,
        "lng": -84.8275846
    },
    {
        "pollPlaceName": "1276-DEER LICK PARK REC. CTR.",
        "googlePlaceID": "ChIJAeFMADYh9YgRKfym339KeH0",
        "dates": [
            "03/16/2020 - 03/20/2020 08:00 AM - 06:00 PM"
        ],
        "lat": 33.7492714,
        "lng": -84.6852474
    },
    {
        "pollPlaceName": "DOUGLAS COUNTY COURTHOUSE",
        "googlePlaceID": "ChIJr-pkMfYm9YgR3kFQ6zBSjog",
        "dates": [
            "03/02/2020 - 03/20/2020 08:00 AM - 06:00 PM",
            "03/14/2020 - 03/14/2020 09:00 AM - 04:00 PM"
        ],
        "lat": 33.7433513,
        "lng": -84.7306584
    },
    {
        "pollPlaceName": "WOODIE FITE",
        "googlePlaceID": "ChIJm49au_Ym9YgREFNupK9AQQY",
        "dates": [
            "03/09/2020 - 03/13/2020 08:00 AM - 06:00 PM"
        ],
        "lat": 33.7453685,
        "lng": -84.7270997
    },
    {
        "pollPlaceName": "REGISTRAR'S OFFICE",
        "googlePlaceID": "ChIJx4TIRs5S7YgRU1k6lFgPfOY",
        "dates": [
            "03/02/2020 - 03/20/2020 08:30 AM - 04:30 PM",
            "03/02/2020 - 03/20/2020 08:00 AM - 05:00 PM",
            "03/02/2020 - 03/20/2020 09:00 AM - 05:00 PM",
            "03/14/2020 - 03/14/2020 09:00 AM - 04:00 PM",
            "03/14/2020 - 03/14/2020 09:00 AM - 04:00 PM",
            "03/14/2020 - 03/14/2020 09:00 AM - 04:30 PM"
        ],
        "lat": 31.3784353,
        "lng": -84.93325879999999
    },
    {
        "pollPlaceName": "EFFINGHAM CO. BOARD OF ELECTIONS AND REGISTRATION",
        "googlePlaceID": "ChIJbSII57W5-4gRCNbwX_ABzXo",
        "dates": [
            "03/02/2020 - 03/06/2020 08:30 AM - 05:00 PM",
            "03/09/2020 - 03/13/2020 08:30 AM - 05:00 PM",
            "03/14/2020 - 03/14/2020 09:00 AM - 04:00 PM",
            "03/16/2020 - 03/20/2020 08:30 AM - 05:00 PM"
        ],
        "lat": 32.3684649,
        "lng": -81.3166038
    },
    {
        "pollPlaceName": "OLD MARLOW ELEMENTARY",
        "googlePlaceID": "ChIJc5OQK72v-4gRkW1DgIXvIXU",
        "dates": [
            "03/09/2020 - 03/13/2020 08:30 AM - 05:00 PM",
            "03/14/2020 - 03/14/2020 09:00 AM - 04:00 PM",
            "03/16/2020 - 03/20/2020 08:30 AM - 05:00 PM"
        ],
        "lat": 32.2081675,
        "lng": -81.36447299999999
    },
    {
        "pollPlaceName": "ELBERT CO. GOVERNMENT COMPLEX",
        "googlePlaceID": "ChIJ7b3z2XbN94gRjwAGIpFC_hE",
        "dates": [
            "03/02/2020 - 03/20/2020 09:00 AM - 05:00 PM"
        ],
        "lat": 34.1099645,
        "lng": -82.8687314
    },
    {
        "pollPlaceName": "OFFICE",
        "googlePlaceID": "ChIJO_g0qEKk8IgRQ4VTT-BFFEY",
        "dates": [
            "03/02/2020 - 03/20/2020 08:00 AM - 05:00 PM"
        ],
        "lat": 32.5971822,
        "lng": -82.3338182
    },
    {
        "pollPlaceName": "COURTHOUSE ANNEX",
        "googlePlaceID": "ChIJMTrpruFg-ogR6PltrEjPasM",
        "dates": [
            "03/02/2020 - 03/06/2020 08:00 AM - 05:00 PM",
            "03/02/2020 - 03/20/2020 08:00 AM - 06:00 PM",
            "03/02/2020 - 03/20/2020 09:00 AM - 05:00 PM",
            "03/02/2020 - 03/20/2020 08:00 AM - 05:00 PM",
            "03/02/2020 - 03/20/2020 08:00 AM - 04:30 PM",
            "03/09/2020 - 03/13/2020 08:00 AM - 05:00 PM",
            "03/14/2020 - 03/14/2020 09:00 AM - 04:00 PM",
            "03/14/2020 - 03/14/2020 09:00 AM - 04:00 PM",
            "03/14/2020 - 03/14/2020 09:00 AM - 04:00 PM",
            "03/14/2020 - 03/14/2020 09:00 AM - 04:00 PM",
            "03/14/2020 - 03/14/2020 09:00 AM - 04:00 PM",
            "03/16/2020 - 03/20/2020 08:00 AM - 05:00 PM"
        ],
        "lat": 32.1618096,
        "lng": -81.90749009999999
    },
    {
        "pollPlaceName": "ELECTION OFFICE",
        "googlePlaceID": "Ei00MDAgVyBNYWluIFN0ICMzMDEsIEJsdWUgUmlkZ2UsIEdBIDMwNTEzLCBVU0EiHxodChYKFAoSCVXDasJYpl-IEdBZaoKGev1HEgMzMDE",
        "dates": [
            "03/02/2020 - 03/06/2020 09:00 AM - 05:00 PM",
            "03/02/2020 - 03/20/2020 09:00 AM - 05:00 PM",
            "03/02/2020 - 03/20/2020 08:00 AM - 05:00 PM",
            "03/09/2020 - 03/13/2020 09:00 AM - 05:00 PM",
            "03/14/2020 - 03/14/2020 09:00 AM - 04:00 PM",
            "03/14/2020 - 03/14/2020 09:00 AM - 04:00 PM",
            "03/16/2020 - 03/20/2020 09:00 AM - 05:00 PM"
        ],
        "lat": 34.8644888,
        "lng": -84.3266764
    },
    {
        "pollPlaceName": "FAYETTE COUNTY ELECTIONS OFFICE",
        "googlePlaceID": "ChIJ3Xy84jTu9IgRf0h4TAmP0QA",
        "dates": [
            "03/02/2020 - 03/06/2020 08:00 AM - 05:00 PM",
            "03/09/2020 - 03/13/2020 08:00 AM - 05:00 PM",
            "03/14/2020 - 03/14/2020 09:00 AM - 04:00 PM",
            "03/16/2020 - 03/20/2020 07:00 AM - 05:00 PM"
        ],
        "lat": 33.4470043,
        "lng": -84.45705579999999
    },
    {
        "pollPlaceName": "PEACHTREE CITY LIBRARY",
        "googlePlaceID": "ChIJF7qxaCPq9IgRCl-Co4c94f4",
        "dates": [
            "03/02/2020 - 03/06/2020 08:00 AM - 05:00 PM",
            "03/09/2020 - 03/13/2020 08:00 AM - 05:00 PM",
            "03/14/2020 - 03/14/2020 09:00 AM - 04:00 PM",
            "03/16/2020 - 03/20/2020 07:00 AM - 05:00 PM"
        ],
        "lat": 33.400401,
        "lng": -84.580643
    },
    {
        "pollPlaceName": "TYRONE TOWN HALL",
        "googlePlaceID": "ChIJpZWK2SLo9IgRigegeyLxc_c",
        "dates": [
            "03/02/2020 - 03/06/2020 08:00 AM - 05:00 PM",
            "03/09/2020 - 03/13/2020 08:00 AM - 05:00 PM",
            "03/14/2020 - 03/14/2020 09:00 AM - 04:00 PM",
            "03/16/2020 - 03/20/2020 07:00 AM - 05:00 PM"
        ],
        "lat": 33.4751851,
        "lng": -84.59626870000001
    },
    {
        "pollPlaceName": "GARDEN LKS BAPTIST/FELLOW HALL",
        "googlePlaceID": "ChIJoWRKaqqjiogRMHgxG_dIqAY",
        "dates": [
            "03/09/2020 - 03/13/2020 09:00 AM - 05:00 PM"
        ],
        "lat": 34.2838748,
        "lng": -85.22703899999999
    },
    {
        "pollPlaceName": "MAIN OFFICE",
        "googlePlaceID": "ChIJ30fk2L6kiogR0IbyJt2bE9E",
        "dates": [
            "03/02/2020 - 03/06/2020 08:00 AM - 05:00 PM",
            "03/02/2020 - 03/06/2020 08:00 AM - 05:00 PM",
            "03/02/2020 - 03/20/2020 08:00 AM - 05:00 PM",
            "03/09/2020 - 03/13/2020 08:00 AM - 05:00 PM",
            "03/09/2020 - 03/13/2020 08:00 AM - 05:00 PM",
            "03/14/2020 - 03/14/2020 09:00 AM - 04:00 PM",
            "03/14/2020 - 03/14/2020 09:00 AM - 04:00 PM",
            "03/15/2020 - 03/15/2020 12:00 PM - 05:00 PM",
            "03/16/2020 - 03/20/2020 08:00 AM - 05:00 PM",
            "03/16/2020 - 03/20/2020 08:00 AM - 06:00 PM"
        ],
        "lat": 34.2538103,
        "lng": -85.171347
    },
    {
        "pollPlaceName": "ROME CIVIC CENTER",
        "googlePlaceID": "ChIJS30hGuukiogRPsUHgmYUNVY",
        "dates": [
            "03/14/2020 - 03/14/2020 09:00 AM - 04:00 PM",
            "03/15/2020 - 03/15/2020 09:00 AM - 04:00 PM",
            "03/16/2020 - 03/20/2020 08:00 AM - 05:00 PM"
        ],
        "lat": 34.2615548,
        "lng": -85.1671046
    },
    {
        "pollPlaceName": "ELECTIONS AND VOTER REGISTRATION OFFICE",
        "googlePlaceID": "ChIJAQnr5QKF9YgRAMtH8d3OL1k",
        "dates": [
            "03/02/2020 - 03/02/2020 08:00 AM - 06:00 PM",
            "03/02/2020 - 03/06/2020 08:00 AM - 05:00 PM",
            "03/03/2020 - 03/03/2020 08:00 AM - 06:00 PM",
            "03/04/2020 - 03/04/2020 08:00 AM - 06:00 PM",
            "03/05/2020 - 03/05/2020 08:00 AM - 06:00 PM",
            "03/06/2020 - 03/06/2020 08:00 AM - 06:00 PM",
            "03/09/2020 - 03/09/2020 08:00 AM - 06:00 PM",
            "03/09/2020 - 03/13/2020 08:00 AM - 05:00 PM",
            "03/10/2020 - 03/10/2020 08:00 AM - 06:00 PM",
            "03/11/2020 - 03/11/2020 08:00 AM - 06:00 PM",
            "03/12/2020 - 03/12/2020 08:00 AM - 06:00 PM",
            "03/13/2020 - 03/13/2020 08:00 AM - 06:00 PM",
            "03/14/2020 - 03/14/2020 09:00 AM - 05:00 PM",
            "03/14/2020 - 03/14/2020 09:00 AM - 07:00 PM",
            "03/16/2020 - 03/16/2020 08:00 AM - 06:00 PM",
            "03/16/2020 - 03/20/2020 08:00 AM - 07:00 PM",
            "03/17/2020 - 03/17/2020 08:00 AM - 06:00 PM",
            "03/18/2020 - 03/18/2020 08:00 AM - 06:00 PM",
            "03/19/2020 - 03/19/2020 08:00 AM - 06:00 PM",
            "03/20/2020 - 03/20/2020 08:00 AM - 05:00 PM"
        ],
        "lat": 34.2236034,
        "lng": -84.1387526
    },
    {
        "pollPlaceName": "HAMPTON PARK LIBRARY",
        "googlePlaceID": "ChIJJS6myOWI9YgRMVPVaKXqgng",
        "dates": [
            "03/14/2020 - 03/14/2020 09:00 AM - 05:00 PM",
            "03/16/2020 - 03/16/2020 08:00 AM - 06:00 PM",
            "03/17/2020 - 03/17/2020 08:00 AM - 06:00 PM",
            "03/18/2020 - 03/18/2020 08:00 AM - 06:00 PM",
            "03/19/2020 - 03/19/2020 08:00 AM - 06:00 PM",
            "03/20/2020 - 03/20/2020 08:00 AM - 05:00 PM"
        ],
        "lat": 34.3052959,
        "lng": -84.0675323
    },
    {
        "pollPlaceName": "MIDWAY PARK COMMUNITY BUILDING",
        "googlePlaceID": "ChIJY2n-Ui6D9YgRHiTkNoNRnAU",
        "dates": [
            "03/14/2020 - 03/14/2020 09:00 AM - 05:00 PM",
            "03/16/2020 - 03/16/2020 08:00 AM - 06:00 PM",
            "03/17/2020 - 03/17/2020 08:00 AM - 06:00 PM",
            "03/18/2020 - 03/18/2020 08:00 AM - 06:00 PM",
            "03/19/2020 - 03/19/2020 08:00 AM - 06:00 PM",
            "03/20/2020 - 03/20/2020 08:00 AM - 05:00 PM"
        ],
        "lat": 34.2032843,
        "lng": -84.2194748
    },
    {
        "pollPlaceName": "PARKS & REC NATURAL RESOURCES OPERATIONS CENTER",
        "googlePlaceID": "ChIJ5VOIE32E9YgRiQ5-Am8ZS7s",
        "dates": [
            "03/14/2020 - 03/14/2020 09:00 AM - 05:00 PM",
            "03/16/2020 - 03/16/2020 08:00 AM - 06:00 PM",
            "03/17/2020 - 03/17/2020 08:00 AM - 06:00 PM",
            "03/18/2020 - 03/18/2020 08:00 AM - 06:00 PM",
            "03/19/2020 - 03/19/2020 08:00 AM - 06:00 PM",
            "03/20/2020 - 03/20/2020 08:00 AM - 05:00 PM"
        ],
        "lat": 34.2390374,
        "lng": -84.17685399999999
    },
    {
        "pollPlaceName": "SHARON SPRINGS PARK COMMUNITY BUILDING",
        "googlePlaceID": "ChIJQXkG6cKb9YgRENEpChnCKb0",
        "dates": [
            "03/14/2020 - 03/14/2020 09:00 AM - 05:00 PM",
            "03/16/2020 - 03/16/2020 08:00 AM - 06:00 PM",
            "03/17/2020 - 03/17/2020 08:00 AM - 06:00 PM",
            "03/18/2020 - 03/18/2020 08:00 AM - 06:00 PM",
            "03/19/2020 - 03/19/2020 08:00 AM - 06:00 PM",
            "03/20/2020 - 03/20/2020 08:00 AM - 05:00 PM"
        ],
        "lat": 34.1163496,
        "lng": -84.1640814
    },
    {
        "pollPlaceName": "FRANKLIN COUNTY BOARD OF ELECTIONS & REGISTRATION BUILDING",
        "googlePlaceID": "ChIJqwGObXWfWIgRE-sZbnu1Mv8",
        "dates": [
            "03/02/2020 - 03/06/2020 08:00 AM - 04:30 PM",
            "03/09/2020 - 03/13/2020 08:00 AM - 04:30 PM",
            "03/16/2020 - 03/20/2020 08:00 AM - 04:30 PM"
        ],
        "lat": 34.3670106,
        "lng": -83.2311314
    },
    {
        "pollPlaceName": "AA - ALPHARETTA BRANCH LIBRARY",
        "googlePlaceID": "ChIJLd6oi6J19YgRts_jqXZrqVs",
        "dates": [
            "03/02/2020 - 03/06/2020 08:30 AM - 06:00 PM",
            "03/09/2020 - 03/13/2020 08:30 AM - 06:00 PM",
            "03/14/2020 - 03/14/2020 08:30 AM - 06:00 PM",
            "03/15/2020 - 03/15/2020 12:00 PM - 05:00 PM",
            "03/16/2020 - 03/20/2020 08:30 AM - 06:00 PM"
        ],
        "lat": 34.0739169,
        "lng": -84.2922893
    },
    {
        "pollPlaceName": "AA - ATLANTA METROPOLITAN STATE COLLEGE",
        "googlePlaceID": "ChIJ68qgIP0C9YgRFG0kqgpxvlo",
        "dates": [
            "03/03/2020 - 03/05/2020 08:30 AM - 04:00 PM"
        ],
        "lat": 33.7098439,
        "lng": -84.4054456
    },
    {
        "pollPlaceName": "AA - C.T MARTIN NATATORIUM AND RECREATION CENTER",
        "googlePlaceID": "ChIJTRqgYHAc9YgR5ywErhF4bs4",
        "dates": [
            "03/02/2020 - 03/06/2020 08:30 AM - 06:00 PM",
            "03/09/2020 - 03/13/2020 08:30 AM - 06:00 PM",
            "03/14/2020 - 03/14/2020 08:30 AM - 06:00 PM",
            "03/15/2020 - 03/15/2020 12:00 PM - 05:00 PM",
            "03/16/2020 - 03/20/2020 08:30 AM - 06:00 PM"
        ],
        "lat": 33.7541215,
        "lng": -84.4918471
    },
    {
        "pollPlaceName": "AA - CHASTAIN PARK GYMNASIUM",
        "googlePlaceID": "EioxNDAgVyBXaWV1Y2EgUmQgTkUsIEF0bGFudGEsIEdBIDMwMzQyLCBVU0EiGxIZChQKEgmhoVXiEA_1iBGZrQji_9yv3BCMAQ",
        "dates": [
            "03/02/2020 - 03/06/2020 08:30 AM - 06:00 PM",
            "03/09/2020 - 03/13/2020 08:30 AM - 06:00 PM",
            "03/14/2020 - 03/14/2020 08:30 AM - 06:00 PM",
            "03/15/2020 - 03/15/2020 12:00 PM - 05:00 PM",
            "03/16/2020 - 03/20/2020 08:30 AM - 06:00 PM"
        ],
        "lat": 33.8780289,
        "lng": -84.38217039999999
    },
    {
        "pollPlaceName": "AA - COLLEGE PARK LIBRARY",
        "googlePlaceID": "ChIJuY6nHrri9IgRKnQz0YFvO9c",
        "dates": [
            "03/02/2020 - 03/06/2020 08:30 AM - 06:00 PM",
            "03/09/2020 - 03/13/2020 08:30 AM - 06:00 PM",
            "03/14/2020 - 03/14/2020 08:30 AM - 06:00 PM",
            "03/15/2020 - 03/15/2020 12:00 PM - 05:00 PM",
            "03/16/2020 - 03/20/2020 08:30 AM - 06:00 PM"
        ],
        "lat": 33.6556682,
        "lng": -84.4496948
    },
    {
        "pollPlaceName": "AA - DOROTHY BENSON SENIOR MULTIPURPOSE",
        "googlePlaceID": "ChIJh_rEK5kO9YgRR0B_V_3mHGA",
        "dates": [
            "03/19/2020 - 03/20/2020 08:30 AM - 04:00 PM"
        ],
        "lat": 33.9293263,
        "lng": -84.3779565
    },
    {
        "pollPlaceName": "AA - EAST ROSWELL LIBRARY",
        "googlePlaceID": "ChIJ3fmlF8EK9YgRn_sO5RRDQmM",
        "dates": [
            "03/02/2020 - 03/06/2020 08:30 AM - 06:00 PM",
            "03/09/2020 - 03/13/2020 08:30 AM - 06:00 PM",
            "03/14/2020 - 03/14/2020 08:30 AM - 06:00 PM",
            "03/15/2020 - 03/15/2020 12:00 PM - 05:00 PM",
            "03/16/2020 - 03/20/2020 08:30 AM - 06:00 PM"
        ],
        "lat": 34.0029406,
        "lng": -84.29448889999999
    },
    {
        "pollPlaceName": "AA - EASTPOINT LIBRARY",
        "googlePlaceID": "ChIJJ44z_FId9YgR7y29LFsYncI",
        "dates": [
            "03/02/2020 - 03/06/2020 08:30 AM - 06:00 PM",
            "03/09/2020 - 03/13/2020 08:30 AM - 06:00 PM",
            "03/14/2020 - 03/14/2020 08:30 AM - 06:00 PM",
            "03/15/2020 - 03/15/2020 12:00 PM - 05:00 PM",
            "03/16/2020 - 03/20/2020 08:30 AM - 06:00 PM"
        ],
        "lat": 33.6803507,
        "lng": -84.4406947
    },
    {
        "pollPlaceName": "AA - EVELYN G. LOWERY LIBRARY @ CASCADE",
        "googlePlaceID": "ChIJd2oiWDEc9YgRt8qH93IuHGE",
        "dates": [
            "03/02/2020 - 03/06/2020 08:30 AM - 06:00 PM",
            "03/09/2020 - 03/13/2020 08:30 AM - 06:00 PM",
            "03/14/2020 - 03/14/2020 08:30 AM - 06:00 PM",
            "03/15/2020 - 03/15/2020 12:00 PM - 05:00 PM",
            "03/16/2020 - 03/20/2020 08:30 AM - 06:00 PM"
        ],
        "lat": 33.724436,
        "lng": -84.50684969999999
    },
    {
        "pollPlaceName": "AA - FAIRBURN LIBRARY",
        "googlePlaceID": "ChIJLUgh_z_n9IgRjnQMnYfilz0",
        "dates": [
            "03/02/2020 - 03/06/2020 08:30 AM - 06:00 PM",
            "03/09/2020 - 03/13/2020 08:30 AM - 06:00 PM",
            "03/14/2020 - 03/14/2020 08:30 AM - 06:00 PM",
            "03/15/2020 - 03/15/2020 12:00 PM - 05:00 PM",
            "03/16/2020 - 03/20/2020 08:30 AM - 06:00 PM"
        ],
        "lat": 33.5668373,
        "lng": -84.584977
    },
    {
        "pollPlaceName": "AA - GEORGIA INSTITUTE TECHNOLOGY    FERST CENTER",
        "googlePlaceID": "ChIJu3cjeokE9YgRs-wBomwJ-IA",
        "dates": [
            "03/09/2020 - 03/10/2020 08:30 AM - 04:00 PM"
        ],
        "lat": 33.775141,
        "lng": -84.3992195
    },
    {
        "pollPlaceName": "AA - GEORGIA STATE UNIVERSITY",
        "googlePlaceID": "ChIJse4Ji4gD9YgRQqmcO99XbWE",
        "dates": [
            "03/09/2020 - 03/10/2020 08:30 AM - 04:00 PM"
        ],
        "lat": 33.7553049,
        "lng": -84.38459139999999
    },
    {
        "pollPlaceName": "AA - GLADYS S. DENNARD LIBRARY AT SOUTH FULTON",
        "googlePlaceID": "ChIJtaZ6p__j9IgR6AnLaul75_E",
        "dates": [
            "03/02/2020 - 03/06/2020 08:30 AM - 06:00 PM",
            "03/09/2020 - 03/13/2020 08:30 AM - 06:00 PM",
            "03/14/2020 - 03/14/2020 08:30 AM - 06:00 PM",
            "03/15/2020 - 03/15/2020 12:00 PM - 05:00 PM",
            "03/16/2020 - 03/20/2020 08:30 AM - 06:00 PM"
        ],
        "lat": 33.5878106,
        "lng": -84.5195155
    },
    {
        "pollPlaceName": "AA - GOVERNMENT CENTER",
        "googlePlaceID": "EigxMzAgUGVhY2h0cmVlIFN0LCBBdGxhbnRhLCBHQSAzMDMwMywgVVNBIhsSGQoUChIJCQtYuYMD9YgR8augdGSqf3IQggE",
        "dates": [
            "03/02/2020 - 03/06/2020 08:30 AM - 06:00 PM",
            "03/09/2020 - 03/13/2020 08:30 AM - 06:00 PM",
            "03/14/2020 - 03/14/2020 08:30 AM - 06:00 PM",
            "03/15/2020 - 03/15/2020 12:00 PM - 05:00 PM",
            "03/16/2020 - 03/20/2020 08:30 AM - 06:00 PM"
        ],
        "lat": 33.7514239,
        "lng": -84.392654
    },
    {
        "pollPlaceName": "AA - HARRIET DARNELL SENIOR MULTIPURPOSE FACILITY",
        "googlePlaceID": "ChIJ52Hodo0b9YgR9cZM2ptCCHs",
        "dates": [
            "03/10/2020 - 03/11/2020 08:30 AM - 04:00 PM"
        ],
        "lat": 33.7736642,
        "lng": -84.49884639999999
    },
    {
        "pollPlaceName": "AA - HELENE S. MILLS SENIOR MULTI-PURPOSE FACILITY",
        "googlePlaceID": "ChIJgeu2FgoE9YgRx-xJAxxmNyg",
        "dates": [
            "03/17/2020 - 03/18/2020 08:30 AM - 04:00 PM"
        ],
        "lat": 33.7586651,
        "lng": -84.3710444
    },
    {
        "pollPlaceName": "AA - JOHNS CREEK ENVIRONMENTAL CAMPUS",
        "googlePlaceID": "ChIJQYgQQX6g9YgRl9nDCVXCC7U",
        "dates": [
            "03/02/2020 - 03/06/2020 08:30 AM - 06:00 PM",
            "03/09/2020 - 03/13/2020 08:30 AM - 06:00 PM",
            "03/14/2020 - 03/14/2020 08:30 AM - 06:00 PM",
            "03/15/2020 - 03/15/2020 12:00 PM - 05:00 PM",
            "03/16/2020 - 03/20/2020 08:30 AM - 06:00 PM"
        ],
        "lat": 33.9769675,
        "lng": -84.2668915
    },
    {
        "pollPlaceName": "AA - LOUISE WATLEY LIBRARY AT SOUTHEAST ATLANTA ",
        "googlePlaceID": "ChIJ7bxs2qoD9YgRcuOQn3-FCOI",
        "dates": [
            "03/02/2020 - 03/06/2020 08:30 AM - 06:00 PM",
            "03/09/2020 - 03/13/2020 08:30 AM - 06:00 PM",
            "03/14/2020 - 03/14/2020 08:30 AM - 06:00 PM",
            "03/15/2020 - 03/15/2020 12:00 PM - 05:00 PM",
            "03/16/2020 - 03/20/2020 08:30 AM - 06:00 PM"
        ],
        "lat": 33.7149301,
        "lng": -84.3940779
    },
    {
        "pollPlaceName": "AA - MILTON LIBRARY",
        "googlePlaceID": "ChIJpe4N0RR09YgRe_5h4uRkyRc",
        "dates": [
            "03/02/2020 - 03/06/2020 08:30 AM - 06:00 PM",
            "03/09/2020 - 03/13/2020 08:30 AM - 06:00 PM",
            "03/14/2020 - 03/14/2020 08:30 AM - 06:00 PM",
            "03/15/2020 - 03/15/2020 12:00 PM - 05:00 PM",
            "03/16/2020 - 03/20/2020 08:30 AM - 06:00 PM"
        ],
        "lat": 34.0901142,
        "lng": -84.33627179999999
    },
    {
        "pollPlaceName": "AA - MOREHOUSE COLLEGE",
        "googlePlaceID": "ChIJ7ex3HmkD9YgR8CQOJsazZCA",
        "dates": [
            "03/18/2020 - 03/19/2020 08:30 AM - 04:00 PM"
        ],
        "lat": 33.7459887,
        "lng": -84.4139017
    },
    {
        "pollPlaceName": "AA - NEW HORIZON NEIGHORHOOD SENIOR CENTER",
        "googlePlaceID": "ChIJYREILJwE9YgRHKX1xm7ggLA",
        "dates": [
            "03/03/2020 - 03/04/2020 08:30 AM - 04:00 PM"
        ],
        "lat": 33.7631158,
        "lng": -84.41160359999999
    },
    {
        "pollPlaceName": "AA - NORTH FULTON ANNEX",
        "googlePlaceID": "ChIJbcQ5rXEM9YgRofY9AuvOggs",
        "dates": [
            "03/02/2020 - 03/06/2020 08:30 AM - 06:00 PM",
            "03/09/2020 - 03/13/2020 08:30 AM - 06:00 PM",
            "03/14/2020 - 03/14/2020 08:30 AM - 06:00 PM",
            "03/15/2020 - 03/15/2020 12:00 PM - 05:00 PM",
            "03/16/2020 - 03/20/2020 08:30 AM - 06:00 PM"
        ],
        "lat": 33.9658857,
        "lng": -84.3626524
    },
    {
        "pollPlaceName": "AA - NORTHWEST BRANCH AT SCOTTS CROSSING",
        "googlePlaceID": "ChIJaTkZzuEa9YgRisJCkARr_VI",
        "dates": [
            "03/02/2020 - 03/06/2020 08:30 AM - 06:00 PM",
            "03/09/2020 - 03/13/2020 08:30 AM - 06:00 PM",
            "03/14/2020 - 03/14/2020 08:30 AM - 06:00 PM",
            "03/15/2020 - 03/15/2020 12:00 PM - 05:00 PM",
            "03/16/2020 - 03/20/2020 08:30 AM - 06:00 PM"
        ],
        "lat": 33.8052817,
        "lng": -84.4699555
    },
    {
        "pollPlaceName": "AA - PALMETTO LIBRARY",
        "googlePlaceID": "ChIJ_boi9-vc9IgRNTcBXir_7qA",
        "dates": [
            "03/06/2020 - 03/07/2020 08:30 AM - 04:00 PM"
        ],
        "lat": 33.5305862,
        "lng": -84.6643812
    },
    {
        "pollPlaceName": "AA - PARK PLACE AT NEWTOWN SCHOOL",
        "googlePlaceID": "ChIJdf_M7P-f9YgRf11e82pNAjU",
        "dates": [
            "03/02/2020 - 03/06/2020 08:30 AM - 06:00 PM",
            "03/09/2020 - 03/13/2020 08:30 AM - 06:00 PM",
            "03/14/2020 - 03/14/2020 08:30 AM - 06:00 PM",
            "03/15/2020 - 03/15/2020 12:00 PM - 05:00 PM",
            "03/16/2020 - 03/20/2020 08:30 AM - 06:00 PM"
        ],
        "lat": 34.0208269,
        "lng": -84.2685781
    },
    {
        "pollPlaceName": "AA - ROSWELL BRANCH LIBRARY",
        "googlePlaceID": "ChIJn8GouFRz9YgR4ZTxwNbifTo",
        "dates": [
            "03/02/2020 - 03/06/2020 08:30 AM - 06:00 PM",
            "03/09/2020 - 03/13/2020 08:30 AM - 06:00 PM",
            "03/14/2020 - 03/14/2020 08:30 AM - 06:00 PM",
            "03/15/2020 - 03/15/2020 12:00 PM - 05:00 PM",
            "03/16/2020 - 03/20/2020 08:30 AM - 06:00 PM"
        ],
        "lat": 34.0249952,
        "lng": -84.3579018
    },
    {
        "pollPlaceName": "AA - ROSWELL NEIGHBORHOOD SENIOR CENTER",
        "googlePlaceID": "ChIJY4fj0sl09YgROhCD_9Q4wgE",
        "dates": [
            "03/14/2020 - 03/14/2020 08:30 AM - 04:00 PM",
            "03/15/2020 - 03/15/2020 12:00 PM - 05:00 PM"
        ],
        "lat": 34.03117,
        "lng": -84.33271739999999
    },
    {
        "pollPlaceName": "AA - SANDY SPRINGS BRANCH LIBRARY",
        "googlePlaceID": "ChIJfdAKRb0O9YgReJG-oOZ-u4E",
        "dates": [
            "03/02/2020 - 03/06/2020 08:30 AM - 06:00 PM",
            "03/09/2020 - 03/13/2020 08:30 AM - 06:00 PM",
            "03/14/2020 - 03/14/2020 08:30 AM - 06:00 PM",
            "03/15/2020 - 03/15/2020 12:00 PM - 05:00 PM",
            "03/16/2020 - 03/20/2020 08:30 AM - 06:00 PM"
        ],
        "lat": 33.9239692,
        "lng": -84.37428419999999
    },
    {
        "pollPlaceName": "AA - SANDY SPRINGS CITY HALL",
        "googlePlaceID": "ChIJpZCkrZAO9YgRX6pwkd2oyiY",
        "dates": [
            "03/05/2020 - 03/06/2020 08:30 AM - 04:00 PM"
        ],
        "lat": 33.9250724,
        "lng": -84.38061739999999
    },
    {
        "pollPlaceName": "AA - SOUTH FULTON ANNEX",
        "googlePlaceID": "ChIJvTX9PDvh9IgRmFu1sw1RfKY",
        "dates": [
            "03/02/2020 - 03/06/2020 08:30 AM - 06:00 PM",
            "03/09/2020 - 03/13/2020 08:30 AM - 06:00 PM",
            "03/14/2020 - 03/14/2020 08:30 AM - 06:00 PM",
            "03/15/2020 - 03/15/2020 12:00 PM - 05:00 PM",
            "03/16/2020 - 03/20/2020 08:30 AM - 06:00 PM"
        ],
        "lat": 33.6014156,
        "lng": -84.5498808
    },
    {
        "pollPlaceName": "AA - WOLF CREEK LIBRARY",
        "googlePlaceID": "ChIJISHSuSvg9IgRip4X7qz89ns",
        "dates": [
            "03/02/2020 - 03/06/2020 08:30 AM - 06:00 PM",
            "03/09/2020 - 03/13/2020 08:30 AM - 06:00 PM",
            "03/14/2020 - 03/14/2020 08:30 AM - 06:00 PM",
            "03/15/2020 - 03/15/2020 12:00 PM - 05:00 PM",
            "03/16/2020 - 03/20/2020 08:30 AM - 06:00 PM"
        ],
        "lat": 33.6724924,
        "lng": -84.5739809
    },
    {
        "pollPlaceName": "AA- ADAMS PARK LIBRARY",
        "googlePlaceID": "ChIJtTnFgxcd9YgRhD_IZzKfvD4",
        "dates": [
            "03/02/2020 - 03/06/2020 08:30 AM - 06:00 PM",
            "03/09/2020 - 03/13/2020 08:30 AM - 06:00 PM",
            "03/14/2020 - 03/14/2020 08:30 AM - 06:00 PM",
            "03/15/2020 - 03/15/2020 12:00 PM - 05:00 PM",
            "03/16/2020 - 03/20/2020 08:30 AM - 06:00 PM"
        ],
        "lat": 33.7056988,
        "lng": -84.46168929999999
    },
    {
        "pollPlaceName": "AA - H.J.C. BOWDEN SENIOR MULTI-PURPOSE FACILITY",
        "googlePlaceID": "ChIJYYJO0FYd9YgRtE62H2JUick",
        "dates": [
            "03/19/2020 - 03/20/2020 08:30 AM - 04:00 PM"
        ],
        "lat": 33.6769036,
        "lng": -84.4449246
    },
    {
        "pollPlaceName": "VOTER REGISTRATION OFFICE",
        "googlePlaceID": "ChIJKzRmolWWX4gRs8zK2OEym2c",
        "dates": [
            "03/02/2020 - 03/20/2020 08:30 AM - 05:00 PM",
            "03/02/2020 - 03/20/2020 08:30 AM - 04:30 PM",
            "03/14/2020 - 03/14/2020 09:00 AM - 04:00 PM"
        ],
        "lat": 34.695096,
        "lng": -84.4833347
    },
    {
        "pollPlaceName": "BALLARD",
        "googlePlaceID": "ChIJ5T65qNPX5IgRP1dC4gKVdG8",
        "dates": [
            "03/02/2020 - 03/02/2020 08:00 AM - 07:00 PM",
            "03/03/2020 - 03/06/2020 08:00 AM - 05:00 PM",
            "03/09/2020 - 03/09/2020 08:00 AM - 07:00 PM",
            "03/10/2020 - 03/13/2020 08:00 AM - 05:00 PM",
            "03/14/2020 - 03/14/2020 09:00 AM - 04:00 PM",
            "03/16/2020 - 03/16/2020 08:00 AM - 05:00 PM",
            "03/17/2020 - 03/20/2020 08:00 AM - 05:00 PM"
        ],
        "lat": 31.20755,
        "lng": -81.50813699999999
    },
    {
        "pollPlaceName": "BOARD OF ELECTIONS OFFICE PARK BLDG",
        "googlePlaceID": "ChIJP4yjzTrY5IgRsf84HmE2cjU",
        "dates": [
            "03/02/2020 - 03/02/2020 08:00 AM - 07:00 PM",
            "03/03/2020 - 03/06/2020 08:00 AM - 05:00 PM",
            "03/09/2020 - 03/09/2020 08:00 AM - 07:00 PM",
            "03/10/2020 - 03/13/2020 08:00 AM - 05:00 PM",
            "03/14/2020 - 03/14/2020 09:00 AM - 04:00 PM",
            "03/16/2020 - 03/16/2020 08:00 AM - 07:00 PM",
            "03/17/2020 - 03/20/2020 08:00 AM - 05:00 PM"
        ],
        "lat": 31.152092,
        "lng": -81.48477299999999
    },
    {
        "pollPlaceName": "SSI ADVANCED VOTING/FIRE STATION # 2",
        "googlePlaceID": "ChIJqWYSKoDQ5IgR_iq3Anfa7RI",
        "dates": [
            "03/02/2020 - 03/02/2020 08:00 AM - 07:00 PM",
            "03/03/2020 - 03/06/2020 08:00 AM - 05:00 PM",
            "03/09/2020 - 03/09/2020 08:00 AM - 07:00 PM",
            "03/10/2020 - 03/13/2020 08:00 AM - 05:00 PM",
            "03/14/2020 - 03/14/2020 09:00 AM - 04:00 PM",
            "03/16/2020 - 03/16/2020 08:00 AM - 07:00 PM",
            "03/17/2020 - 03/20/2020 08:00 AM - 05:00 PM"
        ],
        "lat": 31.1577314,
        "lng": -81.38684049999999
    },
    {
        "pollPlaceName": "ADVANCED/EARLY VOTING",
        "googlePlaceID": "ChIJUaEsIlAHYIgRw_FrhnDm3Wc",
        "dates": [
            "03/02/2020 - 03/06/2020 08:30 AM - 05:00 PM",
            "03/09/2020 - 03/13/2020 08:30 AM - 05:00 PM",
            "03/14/2020 - 03/14/2020 09:00 AM - 04:00 PM",
            "03/16/2020 - 03/20/2020 08:30 AM - 05:00 PM"
        ],
        "lat": 34.502562,
        "lng": -84.950193
    },
    {
        "pollPlaceName": "GRADY COUNTY BOARD OF REGISTRARS",
        "googlePlaceID": "ChIJb-UOiWqp7YgRbZZCb6RxoOg",
        "dates": [
            "03/02/2020 - 03/20/2020 08:30 AM - 04:30 PM",
            "03/14/2020 - 03/14/2020 09:00 AM - 04:00 PM"
        ],
        "lat": 30.8786337,
        "lng": -84.20770519999999
    },
    {
        "pollPlaceName": "GREENE COUNTY ANNEX",
        "googlePlaceID": "ChIJs7rnPbP19ogR7MBn1w8jjM4",
        "dates": [
            "03/02/2020 - 03/06/2020 08:00 AM - 05:00 PM",
            "03/09/2020 - 03/13/2020 08:30 AM - 05:00 PM",
            "03/14/2020 - 03/14/2020 09:00 AM - 04:00 PM",
            "03/16/2020 - 03/20/2020 08:00 AM - 05:00 PM"
        ],
        "lat": 33.566131,
        "lng": -83.19340199999999
    },
    {
        "pollPlaceName": "BOGAN PARK COMMUNITY RECREATION CENTER",
        "googlePlaceID": "ChIJfe3x0XCT9YgRKhyUNaUh5jM",
        "dates": [
            "03/09/2020 - 03/20/2020 07:00 AM - 07:00 PM"
        ],
        "lat": 34.1072984,
        "lng": -83.96918029999999
    },
    {
        "pollPlaceName": "DACULA PARK ACTIVITY BLDG",
        "googlePlaceID": "ChIJdUYHeSzA9YgRFgTt6CTo_2w",
        "dates": [
            "03/09/2020 - 03/20/2020 07:00 AM - 07:00 PM"
        ],
        "lat": 33.9961061,
        "lng": -83.892831
    },
    {
        "pollPlaceName": "GEORGE PIERCE PARK COMMUNITY RECREATION CENTER",
        "googlePlaceID": "ChIJeRRILQKX9YgRxKhk2Vdi5h4",
        "dates": [
            "03/09/2020 - 03/20/2020 07:00 AM - 07:00 PM"
        ],
        "lat": 34.060691,
        "lng": -84.061702
    },
    {
        "pollPlaceName": "GWINNETT COUNTY BOARD OF VOTER REGISTRATIONS AND ELECTIONS",
        "googlePlaceID": "ChIJZ4AThN2-9YgR_msh3myWQlY",
        "dates": [
            "03/02/2020 - 03/20/2020 07:00 AM - 07:00 PM"
        ],
        "lat": 33.9390148,
        "lng": -83.9852093
    },
    {
        "pollPlaceName": "LENORA PARK GYM",
        "googlePlaceID": "ChIJbdKVpya39YgRVU23FX59JXY",
        "dates": [
            "03/09/2020 - 03/20/2020 07:00 AM - 07:00 PM"
        ],
        "lat": 33.7911207,
        "lng": -84.0015384
    },
    {
        "pollPlaceName": "LUCKY SHOALS PARK GYM",
        "googlePlaceID": "ChIJTeMVlGKm9YgRv0A5pSrlaTM",
        "dates": [
            "03/09/2020 - 03/20/2020 07:00 AM - 07:00 PM"
        ],
        "lat": 33.8805852,
        "lng": -84.19716939999999
    },
    {
        "pollPlaceName": "MOUNTAIN PARK ACTIVITY BUILDING",
        "googlePlaceID": "ChIJIf9vCXCl9YgRucXz52MqhGE",
        "dates": [
            "03/09/2020 - 03/20/2020 07:00 AM - 07:00 PM"
        ],
        "lat": 33.8445165,
        "lng": -84.1334524
    },
    {
        "pollPlaceName": "SHORTY HOWELL PARK ACTIVITY BUILDING ",
        "googlePlaceID": "ChIJQ7NdiVOi9YgREt13haUtVVM",
        "dates": [
            "03/09/2020 - 03/20/2020 07:00 AM - 07:00 PM"
        ],
        "lat": 33.9739116,
        "lng": -84.1471048
    },
    {
        "pollPlaceName": "COUNTY ELECTIONS & REGISTRATION OFFICE",
        "googlePlaceID": "ChIJJzLFKWW0WIgROKNU9MRrOK4",
        "dates": [
            "03/02/2020 - 03/20/2020 08:00 AM - 05:00 PM"
        ],
        "lat": 34.6067533,
        "lng": -83.5048304
    },
    {
        "pollPlaceName": "FIRST BAPTIST CHURCH OF CORNELIA",
        "googlePlaceID": "ChIJwygpRPStWIgRaikwbbBMHL4",
        "dates": [
            "03/14/2020 - 03/14/2020 09:00 AM - 04:00 PM",
            "03/16/2020 - 03/20/2020 08:00 AM - 07:00 PM"
        ],
        "lat": 34.5105089,
        "lng": -83.52471949999999
    },
    {
        "pollPlaceName": "RUBY FULBRIGHT AQUATIC CENTER",
        "googlePlaceID": "ChIJSbMUfam2WIgROcPVTuYwSvY",
        "dates": [
            "03/14/2020 - 03/14/2020 09:00 AM - 04:00 PM",
            "03/16/2020 - 03/20/2020 08:00 AM - 07:00 PM"
        ],
        "lat": 34.603976,
        "lng": -83.5032992
    },
    {
        "pollPlaceName": "EAST HALL COMMUNITY BUILDING",
        "googlePlaceID": "ChIJr_eo9Eb49YgRsKoSQeOjvYA",
        "dates": [
            "03/14/2020 - 03/14/2020 07:00 AM - 07:00 PM",
            "03/16/2020 - 03/20/2020 07:00 AM - 07:00 PM"
        ],
        "lat": 34.3185624,
        "lng": -83.7364324
    },
    {
        "pollPlaceName": "HALL COUNTY GOVERNMENT CENTER",
        "googlePlaceID": "ChIJtzCzL3D09YgRuYjbEmBAI-s",
        "dates": [
            "03/02/2020 - 03/06/2020 07:00 AM - 07:00 PM",
            "03/09/2020 - 03/14/2020 07:00 AM - 07:00 PM",
            "03/16/2020 - 03/20/2020 07:00 AM - 07:00 PM"
        ],
        "lat": 34.2776013,
        "lng": -83.87703719999999
    },
    {
        "pollPlaceName": "NORTH HALL COMMUNITY CENTER",
        "googlePlaceID": "ChIJl8sYa69ZX4gRFgKALRREf7w",
        "dates": [
            "03/14/2020 - 03/14/2020 07:00 AM - 07:00 PM",
            "03/16/2020 - 03/20/2020 07:00 AM - 07:00 PM"
        ],
        "lat": 34.405665,
        "lng": -83.7980477
    },
    {
        "pollPlaceName": "SPOUT SPRINGS LIBRARY",
        "googlePlaceID": "ChIJiTMt5Qvt9YgRswX54LMxxoA",
        "dates": [
            "03/14/2020 - 03/14/2020 07:00 AM - 07:00 PM",
            "03/16/2020 - 03/20/2020 07:00 AM - 07:00 PM"
        ],
        "lat": 34.1522456,
        "lng": -83.894341
    },
    {
        "pollPlaceName": "HANCOCK BOER OFFICE",
        "googlePlaceID": "ChIJDb2Qpufg9ogRu8Y9u7W0FRw",
        "dates": [
            "03/02/2020 - 03/20/2020 08:00 AM - 05:00 PM",
            "03/14/2020 - 03/14/2020 09:00 AM - 04:00 PM"
        ],
        "lat": 33.275867,
        "lng": -82.9698768
    },
    {
        "pollPlaceName": "HARALSON COUNTY COURTHOUSE",
        "googlePlaceID": "ChIJcZqOYfrbiogRJOcRw3KQC80",
        "dates": [
            "03/02/2020 - 03/06/2020 08:30 AM - 05:00 PM",
            "03/09/2020 - 03/13/2020 08:30 AM - 05:00 PM",
            "03/14/2020 - 03/14/2020 09:00 AM - 04:00 PM",
            "03/16/2020 - 03/20/2020 08:30 AM - 05:00 PM"
        ],
        "lat": 33.8020262,
        "lng": -85.18175719999999
    },
    {
        "pollPlaceName": "ADVANCED/ABSENTEE VOTING",
        "googlePlaceID": "ChIJSXoVnleAWIgRbCR2lVioHG0",
        "dates": [
            "03/02/2020 - 03/20/2020 08:00 AM - 05:00 PM",
            "03/14/2020 - 03/14/2020 09:00 AM - 04:00 PM"
        ],
        "lat": 34.3468124,
        "lng": -82.94045059999999
    },
    {
        "pollPlaceName": "HEARD COUNTY COURTHOUSE",
        "googlePlaceID": "ChIJP8GxkJlIi4gR8XFgZuSoL7c",
        "dates": [
            "03/02/2020 - 03/06/2020 08:30 AM - 05:00 PM",
            "03/09/2020 - 03/13/2020 08:30 AM - 05:00 PM",
            "03/14/2020 - 03/14/2020 09:00 AM - 04:00 PM",
            "03/16/2020 - 03/20/2020 08:30 AM - 05:00 PM"
        ],
        "lat": 33.2793166,
        "lng": -85.0979229
    },
    {
        "pollPlaceName": "FAIRVIEW RECREATION CENTER",
        "googlePlaceID": "ChIJcf_76XhU9IgRd6dOojuIFWs",
        "dates": [
            "03/14/2020 - 03/14/2020 09:00 AM - 04:00 PM",
            "03/16/2020 - 03/20/2020 07:00 AM - 07:00 PM"
        ],
        "lat": 33.6084147,
        "lng": -84.1874416
    },
    {
        "pollPlaceName": "FORTSON LIBRARY",
        "googlePlaceID": "ChIJvfAbPPf19IgRLOFh3urXbJI",
        "dates": [
            "03/14/2020 - 03/14/2020 09:00 AM - 04:00 PM",
            "03/16/2020 - 03/20/2020 07:00 AM - 07:00 PM"
        ],
        "lat": 33.3834,
        "lng": -84.274142
    },
    {
        "pollPlaceName": "J. P. MOSELEY PARK",
        "googlePlaceID": "ChIJYxxalRhR9IgR_v64v0MLbXs",
        "dates": [
            "03/16/2020 - 03/20/2020 07:00 AM - 07:00 PM"
        ],
        "lat": 33.532076,
        "lng": -84.163342
    },
    {
        "pollPlaceName": "LOCUST GROVE LIBRARY",
        "googlePlaceID": "ChIJezgvwS5d9IgRDQYmS4-vRGw",
        "dates": [
            "03/14/2020 - 03/14/2020 09:00 AM - 04:00 PM",
            "03/16/2020 - 03/20/2020 07:00 AM - 07:00 PM"
        ],
        "lat": 33.3369686,
        "lng": -84.1081336
    },
    {
        "pollPlaceName": "MERLE MANDERS CONFERENCE CENTER",
        "googlePlaceID": "ChIJVbR8Dl1W9IgR-8MZsNE_fWk",
        "dates": [
            "03/02/2020 - 03/06/2020 08:00 AM - 05:00 PM",
            "03/09/2020 - 03/13/2020 08:00 AM - 05:00 PM",
            "03/14/2020 - 03/14/2020 09:00 AM - 04:00 PM",
            "03/15/2020 - 03/15/2020 01:00 PM - 05:00 PM",
            "03/16/2020 - 03/20/2020 07:00 AM - 07:00 PM"
        ],
        "lat": 33.5492416,
        "lng": -84.2346298
    },
    {
        "pollPlaceName": "CENTRAL GA TECH HEALTH SCIENCES BLDG",
        "googlePlaceID": "ChIJa951TAXe84gRphJk2zViLo0",
        "dates": [
            "03/09/2020 - 03/13/2020 08:00 AM - 05:00 PM",
            "03/16/2020 - 03/20/2020 08:00 AM - 05:00 PM"
        ],
        "lat": 32.5486381,
        "lng": -83.66698749999999
    },
    {
        "pollPlaceName": "HOUSTON HEALTH PAVILION CONF CENTER",
        "googlePlaceID": "ChIJMxSjzw3h84gRzHvLEVe2zU8",
        "dates": [
            "03/09/2020 - 03/13/2020 08:00 AM - 05:00 PM",
            "03/14/2020 - 03/14/2020 09:00 AM - 04:00 PM",
            "03/16/2020 - 03/20/2020 08:00 AM - 05:00 PM"
        ],
        "lat": 32.6203105,
        "lng": -83.6434882
    },
    {
        "pollPlaceName": "IRWIN COUNTY ELECTIONS OFFICE",
        "googlePlaceID": "Ei41MDcgTiBJcndpbiBBdmUgU1VJVEUgQywgT2NpbGxhLCBHQSAzMTc3NCwgVVNBIiMaIQoWChQKEgm5VqKhYt3xiBEcEyIVnPgiqhIHU1VJVEUgQw",
        "dates": [
            "03/02/2020 - 03/20/2020 08:00 AM - 05:00 PM",
            "03/14/2020 - 03/14/2020 09:00 AM - 04:00 PM"
        ],
        "lat": 31.5996897,
        "lng": -83.25035869999999
    },
    {
        "pollPlaceName": "GORDON STREET CENTER",
        "googlePlaceID": "ChIJ7Ze5hbYJ9ogRfEnxobU8H14",
        "dates": [
            "03/02/2020 - 03/06/2020 07:00 AM - 05:00 PM",
            "03/07/2020 - 03/07/2020 08:00 AM - 04:00 PM",
            "03/09/2020 - 03/13/2020 07:00 AM - 05:00 PM",
            "03/14/2020 - 03/14/2020 08:00 AM - 04:00 PM",
            "03/16/2020 - 03/20/2020 07:00 AM - 05:00 PM"
        ],
        "lat": 34.11229300000001,
        "lng": -83.567869
    },
    {
        "pollPlaceName": "PARKS AND RECREATION DEPT",
        "googlePlaceID": "ChIJZam5x1cE9ogRIWBlTqAmh78",
        "dates": [
            "03/16/2020 - 03/20/2020 08:00 AM - 05:00 PM"
        ],
        "lat": 34.2107227,
        "lng": -83.46557340000001
    },
    {
        "pollPlaceName": "POLICE & MUNICIPAL COURT BLDG",
        "googlePlaceID": "ChIJF9EMn4rl9YgRghF27yPCXZk",
        "dates": [
            "03/16/2020 - 03/20/2020 07:00 AM - 05:00 PM"
        ],
        "lat": 34.10776730000001,
        "lng": -83.7621979
    },
    {
        "pollPlaceName": "JASPER COUNTY COURTHOUSE",
        "googlePlaceID": "Ei0xMjYgVyBHcmVlbmUgU3QgIzYsIE1vbnRpY2VsbG8sIEdBIDMxMDY0LCBVU0EiHRobChYKFAoSCZkqbekjIvSIEcixv7cMnGiNEgE2",
        "dates": [
            "03/02/2020 - 03/13/2020 08:30 AM - 04:30 PM",
            "03/14/2020 - 03/14/2020 09:00 AM - 04:00 PM",
            "03/16/2020 - 03/20/2020 08:30 AM - 04:30 PM"
        ],
        "lat": 33.3049052,
        "lng": -83.6836647
    },
    {
        "pollPlaceName": "JEFF DAVIS COUNTY COURTHOUSE",
        "googlePlaceID": "ChIJn6z844NB8IgRb6mqVkg6wAg",
        "dates": [
            "03/02/2020 - 03/20/2020 09:00 AM - 05:00 PM",
            "03/14/2020 - 03/14/2020 09:00 AM - 05:00 PM"
        ],
        "lat": 31.8626007,
        "lng": -82.60081079999999
    },
    {
        "pollPlaceName": "COURTHOUSE",
        "googlePlaceID": "ChIJ22gcEREe-ogRXgmDHCJjl6k",
        "dates": [
            "03/02/2020 - 03/06/2020 08:30 AM - 05:00 PM",
            "03/02/2020 - 03/20/2020 09:00 AM - 05:00 PM",
            "03/02/2020 - 03/20/2020 09:00 AM - 05:00 PM",
            "03/02/2020 - 03/20/2020 08:00 AM - 05:00 PM",
            "03/02/2020 - 03/20/2020 08:00 AM - 04:30 PM",
            "03/09/2020 - 03/13/2020 08:30 AM - 05:00 PM",
            "03/14/2020 - 03/14/2020 09:00 AM - 04:00 PM",
            "03/14/2020 - 03/14/2020 09:00 AM - 04:00 PM",
            "03/16/2020 - 03/20/2020 08:30 AM - 05:00 PM"
        ],
        "lat": 32.8043255,
        "lng": -81.93893299999999
    },
    {
        "pollPlaceName": "LAMAR COUNTY BOARD OF ELECTIONS AND REGISTRATION OFFICE",
        "googlePlaceID": "ChIJRZST4sZ79IgRwNwcHGjEKyU",
        "dates": [
            "03/02/2020 - 03/06/2020 08:00 AM - 05:00 PM",
            "03/09/2020 - 03/13/2020 08:00 AM - 05:00 PM",
            "03/14/2020 - 03/14/2020 09:00 AM - 04:00 PM",
            "03/16/2020 - 03/20/2020 08:00 AM - 05:00 PM"
        ],
        "lat": 33.0519631,
        "lng": -84.1574867
    },
    {
        "pollPlaceName": "LANIER COUNTY BOARD OF ELECTIONS",
        "googlePlaceID": "ChIJc7D2PTlH7ogR0mEMMerv4xI",
        "dates": [
            "03/02/2020 - 03/06/2020 08:00 AM - 05:00 PM",
            "03/09/2020 - 03/13/2020 08:00 AM - 05:00 PM"
        ],
        "lat": 31.0421464,
        "lng": -83.0900108
    },
    {
        "pollPlaceName": "LAURENS COUNTY BOARD OF REGISTRARS OFFICE BUILDING",
        "googlePlaceID": "ChIJyWnXTIvf8IgRHyO1KneWyTY",
        "dates": [
            "03/02/2020 - 03/20/2020 08:30 AM - 05:00 PM"
        ],
        "lat": 32.5402224,
        "lng": -82.9038138
    },
    {
        "pollPlaceName": "LIBERTY COUNTY COMPLEX",
        "googlePlaceID": "ChIJWWS_xyAc-4gRaHqFi-vlpBY",
        "dates": [
            "03/02/2020 - 03/20/2020 08:00 AM - 05:00 PM"
        ],
        "lat": 31.7981074,
        "lng": -81.4545899
    },
    {
        "pollPlaceName": "LONG COUNTY COURTHOUSE",
        "googlePlaceID": "ChIJubZLoWbC-ogRYtVO15Fw7K0",
        "dates": [
            "03/02/2020 - 03/06/2020 08:00 AM - 05:00 PM",
            "03/09/2020 - 03/13/2020 08:00 AM - 05:00 PM",
            "03/14/2020 - 03/14/2020 09:00 AM - 04:00 PM",
            "03/16/2020 - 03/20/2020 08:00 AM - 05:00 PM"
        ],
        "lat": 31.7077673,
        "lng": -81.7415048
    },
    {
        "pollPlaceName": "LOWNDES COUNTY ELECTIONS",
        "googlePlaceID": "ChIJLQTaRa1n7ogRF-teVG9TT-8",
        "dates": [
            "03/02/2020 - 03/06/2020 07:00 AM - 07:00 PM",
            "03/07/2020 - 03/07/2020 09:00 AM - 04:00 PM",
            "03/08/2020 - 03/08/2020 12:00 PM - 05:00 PM",
            "03/09/2020 - 03/13/2020 07:00 AM - 07:00 PM",
            "03/14/2020 - 03/14/2020 09:00 AM - 04:00 PM",
            "03/16/2020 - 03/20/2020 07:00 AM - 07:00 PM"
        ],
        "lat": 30.870364,
        "lng": -83.2926145
    },
    {
        "pollPlaceName": "MACON COUNTY ANNEX",
        "googlePlaceID": "ChIJdQ59sDKy84gRzqUpwb983Ks",
        "dates": [
            "03/02/2020 - 03/20/2020 08:00 AM - 05:00 PM",
            "03/14/2020 - 03/14/2020 09:00 AM - 04:00 PM"
        ],
        "lat": 32.2949872,
        "lng": -84.0597308
    },
    {
        "pollPlaceName": "MADISON COUNTY BOARD OF ELECTIONS AND REGISTRATION",
        "googlePlaceID": "ChIJS0f0RTs99ogRxH93TeQrYCI",
        "dates": [
            "03/02/2020 - 03/06/2020 08:00 AM - 05:00 PM",
            "03/09/2020 - 03/13/2020 08:00 AM - 05:00 PM",
            "03/14/2020 - 03/14/2020 09:00 AM - 04:00 PM",
            "03/16/2020 - 03/20/2020 08:00 AM - 05:00 PM"
        ],
        "lat": 34.1242771,
        "lng": -83.2212629
    },
    {
        "pollPlaceName": "ADVANCE VOTING",
        "googlePlaceID": "ChIJgRQRWfgb84gRyGCGM-jwDCs",
        "dates": [
            "03/02/2020 - 03/20/2020 08:15 AM - 04:45 PM",
            "03/02/2020 - 03/20/2020 08:30 AM - 05:00 PM",
            "03/02/2020 - 03/20/2020 08:00 AM - 04:30 PM",
            "03/14/2020 - 03/14/2020 09:00 AM - 04:00 PM",
            "03/14/2020 - 03/14/2020 09:00 AM - 04:00 PM"
        ],
        "lat": 32.3296344,
        "lng": -84.5141344
    },
    {
        "pollPlaceName": "DEARING COMMUNITY CENTER",
        "googlePlaceID": "ChIJi3qRFZx694gR_7H4j5Crlgk",
        "dates": [
            "03/02/2020 - 03/20/2020 08:00 AM - 04:30 PM"
        ],
        "lat": 33.4129757,
        "lng": -82.3844481
    },
    {
        "pollPlaceName": "PRECINCT ON MAIN (OLD THS GYM)",
        "googlePlaceID": "ChIJ819Dp49z94gRPgwAkyF97CE",
        "dates": [
            "03/02/2020 - 03/20/2020 08:00 AM - 04:30 PM"
        ],
        "lat": 33.4721081,
        "lng": -82.5061066
    },
    {
        "pollPlaceName": "ELECTION HQ",
        "googlePlaceID": "ChIJswwInumm9IgRz2ycHQFw8qc",
        "dates": [
            "03/02/2020 - 03/06/2020 08:30 AM - 05:00 PM",
            "03/09/2020 - 03/13/2020 08:30 AM - 05:00 PM",
            "03/14/2020 - 03/14/2020 09:00 AM - 04:00 PM",
            "03/16/2020 - 03/20/2020 08:30 AM - 05:00 PM"
        ],
        "lat": 33.0279407,
        "lng": -84.71320829999999
    },
    {
        "pollPlaceName": "MILLER COUNTY COURTHOUSE",
        "googlePlaceID": "ChIJv6F70p1H7YgRYAcw-x_QPhA",
        "dates": [
            "03/02/2020 - 03/20/2020 09:00 AM - 05:00 PM",
            "03/14/2020 - 03/14/2020 09:00 AM - 04:00 PM"
        ],
        "lat": 31.1717442,
        "lng": -84.7339233
    },
    {
        "pollPlaceName": "REGISTRAR'S OFFICE (EARLY VOTING)",
        "googlePlaceID": "ChIJvZkFMk5z9IgR-dtegsOoNeE",
        "dates": [
            "03/02/2020 - 03/06/2020 08:30 AM - 05:00 PM",
            "03/09/2020 - 03/13/2020 08:30 AM - 05:00 PM",
            "03/14/2020 - 03/14/2020 09:00 AM - 04:00 PM",
            "03/16/2020 - 03/20/2020 08:30 AM - 05:00 PM"
        ],
        "lat": 33.0339594,
        "lng": -83.93965039999999
    },
    {
        "pollPlaceName": "MONTGOMERY COUNTY COURTHOUSE",
        "googlePlaceID": "ChIJP1J2TgX18IgRrXZvLRniHOY",
        "dates": [
            "03/02/2020 - 03/06/2020 08:30 AM - 05:00 PM",
            "03/09/2020 - 03/13/2020 08:30 AM - 05:00 PM",
            "03/14/2020 - 03/14/2020 09:00 AM - 04:00 PM",
            "03/16/2020 - 03/20/2020 08:30 AM - 05:00 PM"
        ],
        "lat": 32.1742409,
        "lng": -82.59468729999999
    },
    {
        "pollPlaceName": "ABSA",
        "googlePlaceID": "ChIJuQiTGgqH9ogRiAYDG8lvNE8",
        "dates": [
            "03/02/2020 - 03/06/2020 08:00 AM - 05:00 PM",
            "03/09/2020 - 03/13/2020 08:00 AM - 05:00 PM",
            "03/14/2020 - 03/14/2020 09:00 AM - 04:00 PM",
            "03/16/2020 - 03/20/2020 08:00 AM - 05:00 PM"
        ],
        "lat": 33.5967978,
        "lng": -83.4651337
    },
    {
        "pollPlaceName": "ABSA",
        "googlePlaceID": "ChIJuQiTGgqH9ogRiAYDG8lvNE8",
        "dates": [
            "04/27/2020 - 05/15/2020 09:00 AM - 05:00 PM"
        ],
        "lat": 33.5967978,
        "lng": -83.4651337
    },
    {
        "pollPlaceName": "MURRAY COUNTY RECREATION CENTER",
        "googlePlaceID": "ChIJ4eeXdNjCX4gR_1cgIrBxpFE",
        "dates": [
            "03/02/2020 - 03/06/2020 08:30 AM - 04:30 PM",
            "03/09/2020 - 03/13/2020 08:30 AM - 04:30 PM",
            "03/14/2020 - 03/14/2020 09:00 AM - 04:00 PM",
            "03/16/2020 - 03/20/2020 08:30 AM - 04:30 PM"
        ],
        "lat": 34.7920331,
        "lng": -84.759598
    },
    {
        "pollPlaceName": "MURRAY COUNTY RECREATION CENTER",
        "googlePlaceID": "ChIJ4eeXdNjCX4gR_1cgIrBxpFE",
        "dates": [
            "04/27/2020 - 05/01/2020 08:30 AM - 04:30 PM",
            "05/04/2020 - 05/08/2020 08:30 AM - 04:30 PM",
            "05/09/2020 - 05/09/2020 09:00 AM - 04:00 PM",
            "05/11/2020 - 05/15/2020 08:30 AM - 04:30 PM"
        ],
        "lat": 34.7920331,
        "lng": -84.759598
    },
    {
        "pollPlaceName": "MURRAY COUNTY RECREATION CENTER",
        "googlePlaceID": "ChIJ4eeXdNjCX4gR_1cgIrBxpFE",
        "dates": [
            "06/29/2020 - 07/02/2020 08:30 AM - 04:30 PM",
            "07/06/2020 - 07/10/2020 08:30 AM - 04:30 PM",
            "07/13/2020 - 07/17/2020 08:30 AM - 04:30 PM"
        ],
        "lat": 34.7920331,
        "lng": -84.759598
    },
    {
        "pollPlaceName": "MURRAY COUNTY RECREATION CENTER",
        "googlePlaceID": "ChIJ4eeXdNjCX4gR_1cgIrBxpFE",
        "dates": [
            "10/12/2020 - 10/16/2020 08:30 AM - 04:30 PM",
            "10/19/2020 - 10/23/2020 08:30 AM - 04:30 PM",
            "10/24/2020 - 10/24/2020 09:00 AM - 04:00 PM",
            "10/26/2020 - 10/30/2020 08:30 AM - 04:30 PM"
        ],
        "lat": 34.7920331,
        "lng": -84.759598
    },
    {
        "pollPlaceName": "CITIZENS SERVICE CENTER",
        "googlePlaceID": "ChIJ83U2XCnNjIgRURfBumcnJsE",
        "dates": [
            "03/02/2020 - 03/06/2020 07:00 AM - 07:00 PM",
            "03/07/2020 - 03/08/2020 09:00 AM - 04:00 PM",
            "03/09/2020 - 03/13/2020 07:00 AM - 07:00 PM",
            "03/14/2020 - 03/15/2020 09:00 AM - 04:00 PM",
            "03/16/2020 - 03/20/2020 07:00 AM - 07:00 PM"
        ],
        "lat": 32.4764568,
        "lng": -84.94551229999999
    },
    {
        "pollPlaceName": "NEWTON COUNTY ADMIN BUILDING",
        "googlePlaceID": "ChIJrappwmI09IgRrzkg_T73SF8",
        "dates": [
            "03/02/2020 - 03/06/2020 08:00 AM - 05:00 PM",
            "03/09/2020 - 03/13/2020 08:00 AM - 05:00 PM",
            "03/14/2020 - 03/14/2020 09:00 AM - 04:00 PM",
            "03/16/2020 - 03/20/2020 08:00 AM - 05:00 PM"
        ],
        "lat": 33.5978836,
        "lng": -83.8589664
    },
    {
        "pollPlaceName": "PORTER MEMORIAL LIBRARY",
        "googlePlaceID": "ChIJ-3U-hCVJ9IgRek8ddEV_GlQ",
        "dates": [
            "03/16/2020 - 03/20/2020 09:00 AM - 04:00 PM"
        ],
        "lat": 33.5255435,
        "lng": -84.0058768
    },
    {
        "pollPlaceName": "BOARD OF ELECTIONS",
        "googlePlaceID": "ChIJHTOl19lF9ogRVhRaHJTuTqs",
        "dates": [
            "03/02/2020 - 03/06/2020 08:00 AM - 05:00 PM",
            "03/02/2020 - 03/06/2020 08:30 AM - 04:30 PM",
            "03/02/2020 - 03/06/2020 08:00 AM - 05:00 PM",
            "03/02/2020 - 03/20/2020 08:00 AM - 05:00 PM",
            "03/09/2020 - 03/13/2020 08:00 AM - 05:00 PM",
            "03/09/2020 - 03/13/2020 08:30 AM - 04:30 PM",
            "03/09/2020 - 03/13/2020 08:00 AM - 05:00 PM",
            "03/14/2020 - 03/14/2020 09:00 AM - 04:00 PM",
            "03/14/2020 - 03/14/2020 09:00 AM - 04:00 PM",
            "03/14/2020 - 03/14/2020 09:00 AM - 04:00 PM",
            "03/14/2020 - 03/14/2020 09:00 AM - 04:00 PM",
            "03/16/2020 - 03/20/2020 08:00 AM - 05:00 PM",
            "03/16/2020 - 03/20/2020 08:30 AM - 04:30 PM",
            "03/16/2020 - 03/20/2020 08:00 AM - 05:00 PM"
        ],
        "lat": 33.8684354,
        "lng": -83.1111541
    },
    {
        "pollPlaceName": "BURNT HICKORY PARK",
        "googlePlaceID": "ChIJU-xkGRo29YgRUZOagXw-TGo",
        "dates": [
            "03/16/2020 - 03/20/2020 08:00 AM - 07:00 PM"
        ],
        "lat": 34.0330185,
        "lng": -84.84013689999999
    },
    {
        "pollPlaceName": "DIANNE WRIGHT INNOVATION CENTER",
        "googlePlaceID": "ChIJc7NkH4Uv9YgRDnDVBgfUnxI",
        "dates": [
            "03/16/2020 - 03/20/2020 08:00 AM - 07:00 PM"
        ],
        "lat": 33.828878,
        "lng": -84.782443
    },
    {
        "pollPlaceName": "WATSON GOV'T COMPLEX",
        "googlePlaceID": "ChIJLzUZjXkx9YgRr04XUUEgl-Q",
        "dates": [
            "03/02/2020 - 03/13/2020 08:00 AM - 05:00 PM",
            "03/07/2020 - 03/07/2020 09:00 AM - 04:00 PM",
            "03/14/2020 - 03/14/2020 09:00 AM - 04:00 PM",
            "03/16/2020 - 03/20/2020 08:00 AM - 07:00 PM"
        ],
        "lat": 33.9171274,
        "lng": -84.84750770000001
    },
    {
        "pollPlaceName": "BYRON MUNICIPAL COMPLEX",
        "googlePlaceID": "ChIJzdMv___l84gRAxHwEKOtBqA",
        "dates": [
            "03/02/2020 - 03/20/2020 09:00 AM - 05:00 PM"
        ],
        "lat": 32.6541746,
        "lng": -83.76203199999999
    },
    {
        "pollPlaceName": "PEACH COUNTY BOARD OF ELECTIONS & REGISTRATION OFFICE",
        "googlePlaceID": "ChIJ5Wo8mczB84gR1_yp7-eG7eE",
        "dates": [
            "03/02/2020 - 03/20/2020 09:00 AM - 05:00 PM"
        ],
        "lat": 32.5533714,
        "lng": -83.88809119999999
    },
    {
        "pollPlaceName": "PICKENS COUNTY BOARD OF ELECTIONS & REGISTRATION",
        "googlePlaceID": "ChIJBWe6q-KFX4gRrinG1mWS8eA",
        "dates": [
            "03/02/2020 - 03/13/2020 08:00 AM - 05:00 PM",
            "03/14/2020 - 03/14/2020 09:00 AM - 04:00 PM",
            "03/16/2020 - 03/20/2020 08:00 AM - 05:00 PM"
        ],
        "lat": 34.4706207,
        "lng": -84.42754459999999
    },
    {
        "pollPlaceName": "ADVANCE/EARLY VOTING/REGISTRAR OFFICE",
        "googlePlaceID": "ChIJ-e8b522G9IgRM629T77w2CI",
        "dates": [
            "03/02/2020 - 03/20/2020 09:00 AM - 04:00 PM",
            "03/14/2020 - 03/14/2020 09:00 AM - 04:00 PM"
        ],
        "lat": 33.1030494,
        "lng": -84.3425145
    },
    {
        "pollPlaceName": "CEDARTOWN ELECTIONS OFFICE",
        "googlePlaceID": "ChIJl-iVU8nBiogRk8B0210xe5o",
        "dates": [
            "03/02/2020 - 03/06/2020 09:00 AM - 05:00 PM",
            "03/09/2020 - 03/13/2020 09:00 AM - 05:00 PM",
            "03/14/2020 - 03/14/2020 09:00 AM - 04:00 PM",
            "03/16/2020 - 03/16/2020 09:00 AM - 05:00 PM",
            "03/17/2020 - 03/17/2020 09:00 AM - 07:00 PM",
            "03/18/2020 - 03/18/2020 09:00 AM - 05:00 PM",
            "03/19/2020 - 03/19/2020 09:00 AM - 07:00 PM",
            "03/20/2020 - 03/20/2020 09:00 AM - 05:00 PM"
        ],
        "lat": 34.0114711,
        "lng": -85.2564811
    },
    {
        "pollPlaceName": "ROCKMART COMMUNITY CENTER",
        "googlePlaceID": "ChIJaRY0YnPJiogR2w3luINZAOs",
        "dates": [
            "03/02/2020 - 03/06/2020 09:00 AM - 05:00 PM",
            "03/09/2020 - 03/13/2020 09:00 AM - 05:00 PM",
            "03/14/2020 - 03/14/2020 09:00 AM - 04:00 PM",
            "03/16/2020 - 03/16/2020 09:00 AM - 05:00 PM",
            "03/17/2020 - 03/17/2020 09:00 AM - 07:00 PM",
            "03/18/2020 - 03/18/2020 09:00 AM - 05:00 PM",
            "03/19/2020 - 03/19/2020 09:00 AM - 07:00 PM",
            "03/20/2020 - 03/20/2020 09:00 AM - 05:00 PM"
        ],
        "lat": 34.0033548,
        "lng": -85.0424663
    },
    {
        "pollPlaceName": "COMMUNITY SERVICE BLDG.",
        "googlePlaceID": "ChIJhYTj99N78YgRlTH4wQ77m50",
        "dates": [
            "03/02/2020 - 03/20/2020 08:00 AM - 05:00 PM",
            "03/14/2020 - 03/14/2020 09:00 AM - 04:00 PM"
        ],
        "lat": 32.2837268,
        "lng": -83.4689695
    },
    {
        "pollPlaceName": "PUTNAM COUNTY ADMINISTRATION BUILDING",
        "googlePlaceID": "ChIJNd5f1RiX9ogR7cdBoRk5YyI",
        "dates": [
            "03/16/2020 - 03/20/2020 08:00 AM - 05:00 PM"
        ],
        "lat": 33.346081,
        "lng": -83.3966636
    },
    {
        "pollPlaceName": "WATERWORKS BUILDING",
        "googlePlaceID": "Eig0NTcgRSBTdW10ZXIgU3QsIEVhdG9udG9uLCBHQSAzMTAyNCwgVVNBIhsSGQoUChIJoyfs-x-X9ogR_ynXw6egec8QyQM",
        "dates": [
            "03/02/2020 - 03/20/2020 08:00 AM - 05:00 PM"
        ],
        "lat": 33.3295499,
        "lng": -83.379689
    },
    {
        "pollPlaceName": "ADVANCE/ EARLY VOTING",
        "googlePlaceID": "ChIJwQmMYeJHjYgRdpPH6TtrkNg",
        "dates": [
            "03/02/2020 - 03/06/2020 09:00 AM - 04:00 PM",
            "03/09/2020 - 03/14/2020 09:00 AM - 04:00 PM",
            "03/16/2020 - 03/20/2020 09:00 AM - 04:00 PM"
        ],
        "lat": 31.8818,
        "lng": -85.09779999999999
    },
    {
        "pollPlaceName": "RABUN COUNTY BOARD OF ELECTION",
        "googlePlaceID": "ChIJt5GtaL_aWIgRjUlP7P0K9Mc",
        "dates": [
            "03/02/2020 - 03/06/2020 08:30 AM - 05:00 PM",
            "03/09/2020 - 03/13/2020 08:30 AM - 05:00 PM",
            "03/14/2020 - 03/14/2020 09:00 AM - 04:00 PM",
            "03/16/2020 - 03/20/2020 08:30 AM - 05:00 PM"
        ],
        "lat": 34.8781479,
        "lng": -83.4009933
    },
    {
        "pollPlaceName": "COURTHOUSE-GOVT CENTER",
        "googlePlaceID": "ChIJ_3-tLZGw8ogRCj1p3UvaWGI",
        "dates": [
            "03/02/2020 - 03/06/2020 08:00 AM - 05:00 PM",
            "03/09/2020 - 03/13/2020 08:00 AM - 05:00 PM",
            "03/14/2020 - 03/14/2020 09:00 AM - 04:00 PM",
            "03/16/2020 - 03/20/2020 08:00 AM - 05:00 PM"
        ],
        "lat": 31.7667191,
        "lng": -84.7868807
    },
    {
        "pollPlaceName": "1 MAIN OFFICE",
        "googlePlaceID": "ChIJn3yMG3PM-YgRgDdGSh4uLiI",
        "dates": [
            "03/02/2020 - 03/06/2020 08:30 AM - 05:00 PM",
            "03/02/2020 - 03/06/2020 07:00 AM - 07:00 PM",
            "03/07/2020 - 03/07/2020 08:00 AM - 05:00 PM",
            "03/09/2020 - 03/13/2020 08:30 AM - 05:00 PM",
            "03/09/2020 - 03/13/2020 07:00 AM - 07:00 PM",
            "03/14/2020 - 03/14/2020 09:00 AM - 04:00 PM",
            "03/14/2020 - 03/14/2020 08:00 AM - 05:00 PM",
            "03/16/2020 - 03/20/2020 08:30 AM - 06:00 PM",
            "03/16/2020 - 03/20/2020 07:00 AM - 07:00 PM"
        ],
        "lat": 33.4712263,
        "lng": -81.9617403
    },
    {
        "pollPlaceName": "DIAMOND LAKES REGIONAL PARK",
        "googlePlaceID": "ChIJGWR2CGPa-YgR8jzy1_YzRxE",
        "dates": [
            "03/14/2020 - 03/14/2020 09:00 AM - 04:00 PM",
            "03/16/2020 - 03/20/2020 08:30 AM - 06:00 PM"
        ],
        "lat": 33.3532051,
        "lng": -82.09381890000002
    },
    {
        "pollPlaceName": "HENRY H BRIGHAM COMM.CENTER",
        "googlePlaceID": "ChIJXyZGAOjR-YgR9d-vSUopBt0",
        "dates": [
            "03/14/2020 - 03/14/2020 09:00 AM - 04:00 PM",
            "03/16/2020 - 03/20/2020 08:30 AM - 06:00 PM"
        ],
        "lat": 33.430028,
        "lng": -82.051737
    },
    {
        "pollPlaceName": "WARREN RD RECREATION CENTER",
        "googlePlaceID": "ChIJ8WOp2o3S-YgRvFd9qSMKwkY",
        "dates": [
            "03/14/2020 - 03/14/2020 09:00 AM - 04:00 PM",
            "03/16/2020 - 03/20/2020 08:30 AM - 06:00 PM"
        ],
        "lat": 33.5062214,
        "lng": -82.05769629999999
    },
    {
        "pollPlaceName": "BOARD OF ELECTIONS ANNEX",
        "googlePlaceID": "ChIJ--PRKFWz9YgRsvNOIqHa9E8",
        "dates": [
            "03/02/2020 - 03/06/2020 08:00 AM - 04:30 PM",
            "03/09/2020 - 03/13/2020 08:00 AM - 04:30 PM",
            "03/14/2020 - 03/14/2020 09:00 AM - 04:00 PM",
            "03/16/2020 - 03/17/2020 08:00 AM - 04:30 PM",
            "03/18/2020 - 03/20/2020 08:00 AM - 07:00 PM"
        ],
        "lat": 33.6525808,
        "lng": -84.0192209
    },
    {
        "pollPlaceName": "CONYERS CHURCH OF CHRIST",
        "googlePlaceID": "ChIJO0t6RUZL9IgRYDu37d7p1DQ",
        "dates": [
            "03/02/2020 - 03/06/2020 08:00 AM - 04:30 PM",
            "03/09/2020 - 03/13/2020 08:00 AM - 04:30 PM",
            "03/16/2020 - 03/17/2020 08:00 AM - 04:30 PM",
            "03/18/2020 - 03/20/2020 08:00 AM - 07:00 PM"
        ],
        "lat": 33.637985,
        "lng": -83.998925
    },
    {
        "pollPlaceName": "ST SIMON'S EPISCOPAL CHURCH",
        "googlePlaceID": "ChIJ5R5GJLi09YgR_sK4C_4kEdw",
        "dates": [
            "03/02/2020 - 03/06/2020 08:00 AM - 04:30 PM",
            "03/09/2020 - 03/13/2020 08:00 AM - 04:30 PM",
            "03/16/2020 - 03/17/2020 08:00 AM - 04:30 PM",
            "03/18/2020 - 03/20/2020 08:00 AM - 07:00 PM"
        ],
        "lat": 33.6617848,
        "lng": -83.99681059999999
    },
    {
        "pollPlaceName": "SCHLEY COUNTY COURT HOUSE ANNEX",
        "googlePlaceID": "ChIJYfF-Qi0A84gRI1AY3v0bpDs",
        "dates": [
            "03/02/2020 - 03/20/2020 08:00 AM - 05:00 PM",
            "03/14/2020 - 03/14/2020 09:00 AM - 04:00 PM"
        ],
        "lat": 32.2387093,
        "lng": -84.310852
    },
    {
        "pollPlaceName": "SEMINOLE COUNTY COURTHOUSE",
        "googlePlaceID": "ChIJb_eberwz7YgR92zyJsP6Gis",
        "dates": [
            "03/02/2020 - 03/20/2020 09:00 AM - 05:00 PM"
        ],
        "lat": 31.04183969999999,
        "lng": -84.884838
    },
    {
        "pollPlaceName": "GRIFFIN-SPALDING ATHLETIC HALL OF FAME",
        "googlePlaceID": "Eic4NDEgTWVtb3JpYWwgRHIsIEdyaWZmaW4sIEdBIDMwMjIzLCBVU0EiGxIZChQKEgkpaRLGwGH0iBECCKOIcHOEpBDJBg",
        "dates": [
            "03/02/2020 - 03/20/2020 08:00 AM - 05:00 PM",
            "03/14/2020 - 03/14/2020 09:00 AM - 04:00 PM"
        ],
        "lat": 33.2439483,
        "lng": -84.25011479999999
    },
    {
        "pollPlaceName": "STEPHENS COUNTY GOVERNMENT BUILDING",
        "googlePlaceID": "ChIJb-ITUA-8WIgRom1kIlpAT9s",
        "dates": [
            "03/02/2020 - 03/20/2020 09:00 AM - 05:00 PM"
        ],
        "lat": 34.5803447,
        "lng": -83.3302156
    },
    {
        "pollPlaceName": "SUMTER COUNTY COURTHOUSE",
        "googlePlaceID": "ChIJRd5EpLxX8ogRjAnAhdSSlRc",
        "dates": [
            "03/02/2020 - 03/20/2020 09:00 AM - 05:00 PM"
        ],
        "lat": 32.0718729,
        "lng": -84.23932239999999
    },
    {
        "pollPlaceName": "TALBOT BOARD OF ELECTIONS & REGISTRATION",
        "googlePlaceID": "ChIJcS63xedr84gRWXoRI7PDBSw",
        "dates": [
            "03/02/2020 - 03/06/2020 09:00 AM - 04:00 PM",
            "03/09/2020 - 03/14/2020 09:00 AM - 04:00 PM",
            "03/16/2020 - 03/20/2020 09:00 AM - 04:00 PM"
        ],
        "lat": 32.679648,
        "lng": -84.5413646
    },
    {
        "pollPlaceName": "OLD COLLINS GYM",
        "googlePlaceID": "ChIJlWeSWRZ8-ogRHYPUvuJQvas",
        "dates": [
            "03/16/2020 - 03/20/2020 08:00 AM - 05:00 PM"
        ],
        "lat": 32.1806547,
        "lng": -82.1134551
    },
    {
        "pollPlaceName": "SOUTHEASTERN TECH SCHOOL",
        "googlePlaceID": "EigyMDkgQm9sdG9uIFN0LCBHbGVubnZpbGxlLCBHQSAzMDQyNywgVVNBIhsSGQoUChIJYXqM45CN-ogRfFWKkWtaUWQQ0QE",
        "dates": [
            "03/16/2020 - 03/20/2020 08:00 AM - 05:00 PM"
        ],
        "lat": 31.9330654,
        "lng": -81.9238197
    },
    {
        "pollPlaceName": "VOTER REGISTRAR OFFICE",
        "googlePlaceID": "ChIJu2Y1I0-g84gRx5FCB6UxWnU",
        "dates": [
            "03/02/2020 - 03/06/2020 08:00 AM - 05:00 PM",
            "03/09/2020 - 03/13/2020 08:00 AM - 05:00 PM",
            "03/14/2020 - 03/14/2020 09:00 AM - 04:00 PM",
            "03/16/2020 - 03/20/2020 08:00 AM - 05:00 PM"
        ],
        "lat": 32.556902,
        "lng": -84.2364351
    },
    {
        "pollPlaceName": "TELFAIR CO REGISTRAR OFFICE",
        "googlePlaceID": "Eik5MSBUZWxmYWlyIEF2ZSBCTERHIDMsIEdlb3JnaWEgMzEwNTUsIFVTQSIiGiAKFgoUChIJc9JxM1dT8IgRNAcux4TgzNcSBkJMREcgMw",
        "dates": [
            "03/02/2020 - 03/06/2020 08:00 AM - 05:00 PM",
            "03/09/2020 - 03/13/2020 08:00 AM - 05:00 PM",
            "03/14/2020 - 03/14/2020 09:00 AM - 04:00 PM"
        ],
        "lat": 32.0611429,
        "lng": -82.8984443
    },