[
    {
        "address": "2723 N BOGAN RD, BUFORD, GA, 30519 0000",
        "county": "GWINNETT",
        "election": "11/05/2024 NOVEMBER 5, 2024 - GENERAL ELECTION",
        "lat": 34.10913,
        "lng": -83.96949,
        "name": "BOGAN PARK COMMUNITY RECREATION CENTER",
        "schedule": [
            "10/15/2024 - 10/28/2024 7:00 AM - 7:00 PM",
            "10/29/2024 - 11/01/2024 7:00 AM - 7:00 PM"
        ]
    },
    {
        "address": "455 CAMP PERRIN RD, LAWRENCEVILLE, GA, 30043 0000",
        "county": "GWINNETT",
        "election": "11/05/2024 NOVEMBER 5, 2024 - GENERAL ELECTION",
        "lat": 34.015495,
        "lng": -84.002278,
        "name": "COLLINS HILL LIBRARY",
        "schedule": [
            "10/15/2024 - 10/28/2024 7:00 AM - 7:00 PM",
            "10/29/2024 - 11/01/2024 7:00 AM - 7:00 PM"
        ]
    },
    {
        "address": "2735 OLD AUBURN RD, DACULA, GA, 30019 0000",
        "county": "GWINNETT",
        "election": "11/05/2024 NOVEMBER 5, 2024 - GENERAL ELECTION",
        "lat": 33.996099,
        "lng": -83.892986,
        "name": "DACULA PARK ACTIVITY BLDG",
        "schedule": [
            "10/15/2024 - 10/28/2024 7:00 AM - 7:00 PM",
            "10/15/2024 - 10/28/2024 7:00 AM - 7:00 PM",
            "10/29/2024 - 11/01/2024 7:00 AM - 7:00 PM",
            "10/29/2024 - 11/01/2024 7:00 AM - 7:00 PM"
        ]
    },
    {
        "address": "2780 FIVE FORKS TRICKM RD, LAWRENCEVILLE, GA, 30044 0000",
        "county": "GWINNETT",
        "election": "11/05/2024 NOVEMBER 5, 2024 - GENERAL ELECTION",
        "lat": 33.893321,
        "lng": -84.05496,
        "name": "FIVE FORKS LIBRARY",
        "schedule": [
            "10/15/2024 - 10/28/2024 7:00 AM - 7:00 PM",
            "10/29/2024 - 11/01/2024 7:00 AM - 7:00 PM"
        ]
    },
    {
        "address": "55 BUFORD HWY, SUWANEE, GA, 30024 0000",
        "county": "GWINNETT",
        "election": "11/05/2024 NOVEMBER 5, 2024 - GENERAL ELECTION",
        "lat": 34.05749,
        "lng": -84.05262,
        "name": "GEORGE PIERCE PARK COMMUNITY RECREATION CENTER",
        "schedule": [
            "10/15/2024 - 10/28/2024 7:00 AM - 7:00 PM",
            "10/15/2024 - 10/28/2024 7:00 AM - 7:00 PM",
            "10/29/2024 - 11/01/2024 7:00 AM - 7:00 PM",
            "10/29/2024 - 11/01/2024 7:00 AM - 7:00 PM"
        ]
    },
    {
        "address": "455 GRAYSON HWY, STE 200, LAWRENCEVILLE, GA, 30046",
        "county": "GWINNETT",
        "election": "11/05/2024 NOVEMBER 5, 2024 - GENERAL ELECTION",
        "lat": 33.939242,
        "lng": -83.98532,
        "name": "GWINNETT COUNTY BOARD OF VOTER REGISTRATIONS AND ELECTIONS",
        "schedule": [
            "10/15/2024 - 10/28/2024 7:00 AM - 7:00 PM",
            "10/15/2024 - 10/28/2024 7:00 AM - 7:00 PM",
            "10/29/2024 - 11/01/2024 7:00 AM - 7:00 PM",
            "10/29/2024 - 11/01/2024 7:00 AM - 7:00 PM"
        ]
    },
    {
        "address": "4515 LENORA CHURCH ROAD, SNELLVILLE, GA, 30078",
        "county": "GWINNETT",
        "election": "11/05/2024 NOVEMBER 5, 2024 - GENERAL ELECTION",
        "lat": 33.78998,
        "lng": -83.99922,
        "name": "LENORA PARK GYM",
        "schedule": [
            "10/15/2024 - 10/28/2024 7:00 AM - 7:00 PM",
            "10/15/2024 - 10/28/2024 7:00 AM - 7:00 PM",
            "10/29/2024 - 11/01/2024 7:00 AM - 7:00 PM",
            "10/29/2024 - 11/01/2024 7:00 AM - 7:00 PM"
        ]
    },
    {
        "address": "4651 BRITT RD, NORCROSS, GA, 30093",
        "county": "GWINNETT",
        "election": "11/05/2024 NOVEMBER 5, 2024 - GENERAL ELECTION",
        "lat": 33.8851,
        "lng": -84.191524,
        "name": "LUCKY SHOALS PARK GYM",
        "schedule": [
            "10/15/2024 - 10/28/2024 7:00 AM - 7:00 PM",
            "10/29/2024 - 11/01/2024 7:00 AM - 7:00 PM"
        ]
    },
    {
        "address": "1063 ROCKBRIDGE RD, STONE MOUNTAIN, GA, 30087 0000",
        "county": "GWINNETT",
        "election": "11/05/2024 NOVEMBER 5, 2024 - GENERAL ELECTION",
        "lat": 33.845774,
        "lng": -84.133527,
        "name": "MOUNTAIN PARK ACTIVITY BUILDING",
        "schedule": [
            "10/15/2024 - 10/28/2024 7:00 AM - 7:00 PM",
            "10/15/2024 - 10/28/2024 7:00 AM - 7:00 PM",
            "10/29/2024 - 11/01/2024 7:00 AM - 7:00 PM",
            "10/29/2024 - 11/01/2024 7:00 AM - 7:00 PM"
        ]
    },
    {
        "address": "4650 PEACHTREE INDUSTRIAL BLVD, NORCROSS, GA, 30071 0000",
        "county": "GWINNETT",
        "election": "11/05/2024 NOVEMBER 5, 2024 - GENERAL ELECTION",
        "lat": 33.970789,
        "lng": -84.185234,
        "name": "PINCKNEYVILLE COMMUNITY CENTER",
        "schedule": [
            "10/15/2024 - 10/28/2024 7:00 AM - 7:00 PM",
            "10/15/2024 - 10/28/2024 7:00 AM - 7:00 PM",
            "10/29/2024 - 11/01/2024 7:00 AM - 7:00 PM",
            "10/29/2024 - 11/01/2024 7:00 AM - 7:00 PM"
        ]
    },
    {
        "address": "100 E CROGAN ST, LAWRENCEVILLE, GA, 30046 0000",
        "county": "GWINNETT",
        "election": "11/05/2024 NOVEMBER 5, 2024 - GENERAL ELECTION",
        "lat": 33.961792,
        "lng": -83.974912,
        "name": "RHODES JORDAN COMMUNITY CTR",
        "schedule": [
            "10/15/2024 - 10/28/2024 7:00 AM - 7:00 PM",
            "10/29/2024 - 11/01/2024 7:00 AM - 7:00 PM"
        ]
    },
    {
        "address": "2750 PLEASANT HILL RD, DULUTH, GA, 30096 0000",
        "county": "GWINNETT",
        "election": "11/05/2024 NOVEMBER 5, 2024 - GENERAL ELECTION",
        "lat": 33.973937,
        "lng": -84.147104,
        "name": "SHORTY HOWELL PARK ACTIVITY BUILDING",
        "schedule": [
            "10/15/2024 - 10/28/2024 7:00 AM - 7:00 PM",
            "10/29/2024 - 11/01/2024 7:00 AM - 7:00 PM"
        ]
    }
]