[
    {
        "address": "6503 ALLATOONA GTWY, ACWORTH, GA, 30102",
        "county": "BARTOW",
        "election": "11/05/2024 NOVEMBER 5, 2024 - GENERAL ELECTION",
        "lat": 34.114394,
        "lng": -84.680973,
        "name": "ALLATOONA RESOURCE CENTER",
        "schedule": [
            "10/28/2024 - 11/01/2024 8:00 AM - 6:00 PM"
        ]
    },
    {
        "address": "435 WEST MAIN STREET, CARTERSVILLE, GA, 30120 0000",
        "county": "BARTOW",
        "election": "11/05/2024 NOVEMBER 5, 2024 - GENERAL ELECTION",
        "lat": 34.163467,
        "lng": -84.806494,
        "name": "CARTERSVILLE CIVIC CENTER",
        "schedule": [
            "10/15/2024 - 10/19/2024 8:00 AM - 5:00 PM",
            "10/21/2024 - 10/26/2024 8:00 AM - 5:00 PM",
            "10/28/2024 - 11/01/2024 8:00 AM - 6:00 PM"
        ]
    },
    {
        "address": "163B MANNING MILL RD, ADAIRSVILLE, GA, 30103 0000",
        "county": "BARTOW",
        "election": "11/05/2024 NOVEMBER 5, 2024 - GENERAL ELECTION",
        "lat": 34.344663,
        "lng": -84.905287,
        "name": "MANNING MILL PARK FACILITY",
        "schedule": [
            "10/28/2024 - 11/01/2024 8:00 AM - 6:00 PM"
        ]
    },
    {
        "address": "1300 JOE FRANK HARRIS PWY, CARTERSVILLE, GA, 30120",
        "county": "BARTOW",
        "election": "11/05/2024 NOVEMBER 5, 2024 - GENERAL ELECTION",
        "lat": 34.206284,
        "lng": -84.813911,
        "name": "REGISTRATION OFFICE",
        "schedule": [
            "10/15/2024 - 10/19/2024 8:00 AM - 5:00 PM",
            "10/15/2024 - 10/19/2024 8:00 AM - 5:00 PM",
            "10/21/2024 - 10/26/2024 8:00 AM - 5:00 PM",
            "10/21/2024 - 10/26/2024 8:00 AM - 5:00 PM",
            "10/28/2024 - 11/01/2024 8:00 AM - 6:00 PM",
            "10/28/2024 - 11/01/2024 8:00 AM - 6:00 PM"
        ]
    }
]